,latest.school.name,latest.school.zip,latest.student.size,latest.school.region_id,latest.aid.pell_grant_rate,latest.school.faculty_salary,latest.school.ft_faculty_rate,latest.admissions.test_requirements,latest.completion.completion_rate_4yr_150_nhpi,latest.completion.completion_rate_4yr_150_aian,latest.completion.completion_rate_4yr_150_asian,latest.completion.completion_rate_4yr_150_hispanic,latest.completion.completion_rate_4yr_150_black,latest.completion.completion_rate_4yr_150_white,latest.student.demographics.race_ethnicity.white,latest.student.demographics.race_ethnicity.hispanic,latest.student.demographics.race_ethnicity.black,latest.student.demographics.race_ethnicity.aian,latest.student.demographics.women,latest.student.demographics.men,latest.aid.median_debt.income.30001_75000,latest.aid.median_debt.income.0_30000,latest.aid.median_debt.income.greater_than_75000,latest.aid.median_debt.noncompleters,latest.aid.median_debt.completers.overall,latest.aid.median_debt.male_students,latest.aid.median_debt.independent_students,latest.aid.median_debt.female_students,latest.aid.median_debt.dependent_students,latest.student.demographics.faculty.race_ethnicity.white,latest.student.demographics.faculty.race_ethnicity.two_or_more,latest.student.demographics.faculty.race_ethnicity.unknown,latest.student.demographics.faculty.race_ethnicity.nhpi,latest.student.demographics.faculty.race_ethnicity.hispanic,latest.student.demographics.faculty.race_ethnicity.black,latest.student.demographics.faculty.race_ethnicity.asian,latest.student.demographics.faculty.race_ethnicity.aian,latest.school.religious_affiliation,latest.student.share_25_older,latest.student.demographics.race_ethnicity.api_2000,id,location.lat,location.lon
0,Alabama A & M University,35762,5098.0,5,0.6853,8779.0,0.6833,5.0,0.0,0.0,0.0,0.2222,0.2805,0.3043,0.0184,0.0114,0.8978,0.0027,0.594,0.406,16000.0,17500.0,15000.0,10500.0,31000.0,15000.0,20000.0,18216.0,16057.0,0.1469,0.0095,0.0095,0.0,0.0,0.654,0.0995,0.0047,,0.0617,,100654,34.783368,-86.568502
1,University of Alabama at Birmingham,35294-0110,13284.0,5,0.3253,11590.0,0.7564,5.0,,0.6,0.8354,0.5769,0.5565,0.6276,0.5297,0.0669,0.2458,0.0021,0.621,0.379,15985.0,16666.0,15000.0,10204.0,22300.0,15248.0,16944.0,16183.0,15250.0,0.6808,0.0081,0.0004,0.0012,0.0319,0.0619,0.1575,0.0015,,0.1794,,100663,33.505697,-86.799345
2,Amridge University,36117-3553,251.0,5,0.7852,4672.0,0.7872,,,,,,0.2857,1.0,0.247,0.0438,0.6932,0.0,0.6853,0.3147,18803.0,12875.0,19917.0,10500.0,32189.0,12901.0,14250.0,13385.0,9166.0,0.9706,0.0,0.0,0.0,0.0,0.0294,0.0,0.0,74.0,0.8606,,100690,32.362609,-86.17401
3,University of Alabama in Huntsville,35899,7358.0,5,0.2377,9820.0,0.6538,1.0,,0.6667,0.8125,0.6444,0.4845,0.6098,0.7196,0.061,0.0871,0.008,0.4047,0.5953,13075.0,14502.0,13954.0,10185.0,20705.0,13660.0,15245.0,14000.0,13665.0,0.6809,0.0028,0.0,0.0,0.0256,0.0513,0.1823,0.0085,,0.1519,,100706,34.724557,-86.640449
4,Alabama State University,36104-0271,3495.0,5,0.7205,7701.0,0.6812,5.0,,0.0,0.3333,0.4286,0.2844,0.3636,0.0152,0.0129,0.9259,0.0017,0.6495,0.3505,17000.0,17750.0,18500.0,11000.0,31000.0,14573.0,21500.0,18750.0,17000.0,0.2127,0.0,0.009,0.0,0.0136,0.6063,0.1584,0.0,,0.0677,,100724,32.364317,-86.295677
5,The University of Alabama,35487-0100,30725.0,5,0.1712,10509.0,0.7753,5.0,0.625,0.6207,0.7912,0.661,0.5663,0.7468,0.7676,0.0549,0.105,0.0037,0.5615,0.4385,18500.0,17750.0,17750.0,10250.0,22750.0,16500.0,16444.0,18750.0,18283.0,0.7462,0.0074,0.0018,0.0018,0.0283,0.0645,0.094,0.0018,,0.0735,,100751,33.211875,-87.545978
6,Central Alabama Community College,35010,940.0,5,0.2982,6523.0,0.3824,,,,,,,,0.7245,0.0287,0.1947,0.0021,0.6085,0.3915,5874.0,6500.0,5000.0,4514.0,9766.0,4781.0,8450.0,6000.0,4960.0,0.8537,0.0244,0.0,0.0,0.0,0.122,0.0,0.0,,0.1565,,100760,32.92478,-85.945266
7,Athens State University,35611,2511.0,5,0.4036,8834.0,0.4554,,,,,,,,0.7634,0.0426,0.1243,0.0131,0.7049,0.2951,14848.0,15650.0,13487.0,11883.0,18051.0,13461.0,17750.0,15000.0,12000.0,0.7531,0.0,0.0,0.0,0.0247,0.1111,0.0864,0.0247,,0.5569,,100812,34.806793,-86.964698
8,Auburn University at Montgomery,36117-3596,3742.0,5,0.4821,7885.0,0.6901,1.0,0.0,0.4,0.2222,0.25,0.3287,0.3889,0.4129,0.0131,0.4487,0.004,0.6686,0.3314,14125.0,13000.0,12500.0,8810.0,25000.0,11585.0,16502.0,13750.0,12000.0,0.6771,0.0,0.0628,0.0,0.0179,0.0717,0.0987,0.0045,,0.2031,,100830,32.36736,-86.177544
9,Auburn University,36849,24782.0,5,0.1301,11093.0,0.8436,2.0,1.0,0.7917,0.8321,0.7647,0.6898,0.8206,0.8181,0.0382,0.0461,0.0027,0.4953,0.5047,18250.0,18750.0,16750.0,8750.0,21000.0,16250.0,18489.0,18500.0,17562.0,0.7179,0.0146,0.0053,0.0012,0.0403,0.0637,0.1092,0.0041,,0.04,,100858,32.599378,-85.488258
10,Birmingham-Southern College,35254,1048.0,5,0.2152,7636.0,0.8295,5.0,,0.5,0.8,0.6,0.5818,0.7147,0.729,0.0573,0.1603,0.0038,0.5105,0.4895,17730.0,12000.0,16250.0,8750.0,25000.0,13849.0,,17500.0,,0.901,0.0099,0.0099,0.0,0.0,0.0495,0.0198,0.0099,71.0,0.017,,100937,33.513774,-86.850552
11,Chattahoochee Valley Community College,36869,1107.0,5,0.4568,6452.0,0.3053,,,,,,,,0.3406,0.0641,0.4833,0.0018,0.6594,0.3406,5500.0,6250.0,5500.0,5500.0,10500.0,5500.0,9319.0,6500.0,5469.0,0.775,0.0,0.0,0.0,0.0,0.2,0.025,0.0,,0.3301,,101028,32.42391,-85.031485
12,South University-Montgomery,36116,337.0,5,0.5536,5061.0,0.1731,,,,,0.0,0.0588,0.2222,0.2582,0.0237,0.6884,0.0,0.8457,0.1543,15278.0,12643.0,14700.0,9500.0,26123.0,10834.0,12990.0,13624.0,13668.0,0.6,0.0,0.0,0.0,0.0,0.4,0.0,0.0,,0.6804,,101116,32.342684,-86.216488
13,Enterprise State Community College,36330-1300,1336.0,5,0.3709,8764.0,0.4672,,,,,,,,0.6198,0.0584,0.1991,0.0075,0.4723,0.5277,5552.0,5362.0,5500.0,5500.0,7499.0,6209.0,6537.0,5408.0,5500.0,0.8246,0.0175,0.0,0.0,0.0175,0.1053,0.0351,0.0,,0.2244,,101143,31.297496,-85.836956
14,Coastal Alabama Community College,36507-2698,5217.0,5,0.3142,7345.0,0.3761,,,,,,,,0.6396,0.0339,0.2375,0.0155,0.6408,0.3592,6261.0,5746.0,5500.0,5500.0,11000.0,5500.0,9500.0,6500.0,5500.0,0.8452,0.0119,0.006,0.0,0.0119,0.1012,0.006,0.0179,,0.2206,,101161,30.851343,-87.778193
15,Faulkner University,36109-3390,1696.0,5,0.461,6271.0,0.5511,5.0,0.3333,,0.25,0.0,0.1293,0.2101,0.4599,0.0318,0.4133,0.0018,0.5713,0.4287,14000.0,15750.0,14600.0,8250.0,23000.0,11792.0,16603.0,16665.0,11500.0,0.8992,0.0078,0.0,0.0,0.0078,0.0465,0.031,0.0078,74.0,0.4313,,101189,32.384181,-86.21641
16,Gadsden State Community College,35903,3513.0,5,0.4522,6832.0,0.4941,,,,,,,,0.6812,0.0603,0.2024,0.0026,0.6254,0.3746,,,,,,,,,,0.912,0.024,0.0,0.0,0.024,0.032,0.008,0.0,,0.3261,,101240,33.994001,-85.991438
17,New Beginning College of Cosmetology,35951,57.0,5,0.6538,,,,,,,,,,0.8421,0.1579,0.0,0.0,0.9649,0.0351,,5500.0,,3904.0,9500.0,,7253.0,,4920.0,0.75,0.0,0.0,0.0,0.25,0.0,0.0,0.0,,0.2281,,101277,34.27871,-86.196931
18,George C Wallace Community College-Dothan,36303-9234,3191.0,5,0.4331,6455.0,0.6443,,,,,,,,0.5544,0.0533,0.3231,0.0025,0.7023,0.2977,,,,,,,,,,0.904,0.024,0.0,0.0,0.0,0.064,0.008,0.0,,0.3198,,101286,31.315274,-85.465836
19,George C Wallace State Community College-Hanceville,35077-2000,4303.0,5,0.3989,7650.0,0.4066,,,,,,,,0.798,0.0785,0.0734,0.006,0.6767,0.3233,8000.0,8200.0,8250.0,6628.0,11000.0,6435.0,9500.0,8750.0,6500.0,0.959,0.0,0.0,0.0,0.0082,0.0246,0.0082,0.0,,0.2306,,101295,34.072439,-86.781935
20,George C Wallace State Community College-Selma,36702-2808,942.0,5,0.497,6309.0,0.5049,,,,,,,,0.1645,0.0138,0.7834,0.0,0.6677,0.3323,,,,,,,,,,0.1429,0.0,0.0952,0.0,0.0,0.7619,0.0,0.0,,0.2114,,101301,32.445917,-87.013294
21,Herzing University-Birmingham,35209,608.0,5,0.6748,6644.0,0.5161,3.0,,,,0.0,0.4,0.4545,0.3059,0.0263,0.6151,0.0016,0.7664,0.2336,13130.0,10662.0,15250.0,6862.0,21500.0,12998.0,12018.0,11575.0,11000.0,0.875,0.0,0.0,0.0,0.0,0.0625,0.0625,0.0,,0.7664,,101365,33.468466,-86.832465
22,Huntingdon College,36106-2148,838.0,5,0.3946,7133.0,0.7975,5.0,,1.0,0.0,0.3125,0.4545,0.471,0.6599,0.0632,0.2017,0.0048,0.4487,0.5513,19625.0,25000.0,15250.0,6500.0,27000.0,16000.0,25054.0,23001.0,19500.0,0.8113,0.0,0.1132,0.0,0.0,0.0755,0.0,0.0,71.0,0.0441,,101435,32.351034,-86.284366
23,Heritage Christian University,35630-9977,71.0,5,0.5143,5072.0,1.0,,,,,,,0.0,0.8873,0.0423,0.0563,0.0,0.1127,0.8873,,,,,,,,,,0.8571,0.0,0.0,0.0,0.0,0.1429,0.0,0.0,74.0,0.5904,,101453,34.856153,-87.663051
24,J. F. Drake State Community and Technical College,35811,688.0,5,0.4521,6085.0,0.5,,,,,,,,0.2253,0.0349,0.6686,0.0131,0.5814,0.4186,,,,,,,,,,0.3846,0.0769,0.0,0.0,0.0,0.5,0.0385,0.0,,0.4725,,101462,34.771858,-86.572885
25,J F Ingram State Technical College,36022,400.0,5,0.1805,5888.0,1.0,,,,,,,,0.435,0.01,0.5475,0.0,0.2425,0.7575,,,,,,,,,,0.4464,0.0357,0.0,0.0,0.0,0.5179,0.0,0.0,,0.8775,,101471,32.582312,-86.392369
26,Jacksonville State University,36265,6992.0,5,0.4109,7499.0,0.6823,5.0,0.0,0.6,0.5,0.5625,0.3765,0.5272,0.626,0.0037,0.2541,0.0054,0.6077,0.3923,14250.0,14000.0,14000.0,7845.0,22189.0,12055.0,17601.0,15000.0,13225.0,0.82,0.0,0.0029,0.0,0.0143,0.0686,0.04,0.0029,,0.1258,,101480,33.822938,-85.765321
27,Jefferson State Community College,35215-3098,6143.0,5,0.2826,6996.0,0.3566,,,,,,,,0.5982,0.0698,0.2559,0.0021,0.644,0.356,4500.0,3500.0,5500.0,3500.0,9689.0,4500.0,4500.0,4500.0,4286.0,0.7344,0.0391,0.0,0.0,0.0078,0.1953,0.0234,0.0,,0.2701,,101505,33.652535,-86.707233
28,John C Calhoun State Community College,35671,6795.0,5,0.2705,7044.0,0.3652,,,,,,,,0.6235,0.0846,0.1812,0.0132,0.5679,0.4321,5500.0,6126.0,6500.0,5500.0,12000.0,5500.0,8000.0,6500.0,5500.0,0.7919,0.047,0.0134,0.0,0.0,0.1342,0.0067,0.0067,,0.2773,,101514,34.645844,-86.949674
29,Lawson State Community College,35221-1717,2779.0,5,0.6149,6854.0,0.4643,,,,,,,,0.1223,0.0338,0.8035,0.0014,0.6617,0.3383,,,,,,,,,,0.4342,0.0395,0.0,0.0,0.0,0.5263,0.0,0.0,,0.3378,,101569,33.450814,-86.888844
30,University of West Alabama,35470,2310.0,5,0.5294,6730.0,0.4596,1.0,0.0,0.0,1.0,0.25,0.3438,0.4409,0.4472,0.0225,0.3866,0.0117,0.6957,0.3043,13250.0,12500.0,13000.0,10500.0,24944.0,12500.0,10115.0,13000.0,15500.0,0.6794,0.0,0.084,0.0,0.0,0.1527,0.0458,0.0076,,0.373,,101587,32.588132,-88.186329
31,Lurleen B Wallace Community College,36420-1224,1129.0,5,0.3926,6654.0,0.6942,,,,,,,,0.6811,0.0257,0.2436,0.0044,0.651,0.349,,,,,,,,,,0.9455,0.0,0.0,0.0,0.0182,0.0364,0.0,0.0,,0.1459,,101602,31.322947,-86.452262
32,Marion Military Institute,36756-3207,314.0,5,0.3566,6652.0,0.84,1.0,,,,,,,0.5955,0.0732,0.2134,0.0096,0.2611,0.7389,5500.0,4750.0,5500.0,5500.0,9250.0,5500.0,,5500.0,,0.8571,0.0,0.0,0.0,0.0952,0.0,0.0476,0.0,,,,101648,32.623734,-87.322041
33,Miles College,35064-2621,1517.0,5,0.7826,4917.0,0.6964,,,,0.0,0.1429,0.2407,0.375,0.0343,0.0092,0.9426,0.0007,0.5339,0.4661,14250.0,16500.0,15000.0,12200.0,31217.0,14250.0,18500.0,18751.0,14999.0,0.2,0.0,0.0375,0.0,0.0125,0.7375,0.0125,0.0,55.0,0.152,,101675,33.482442,-86.908751
34,University of Mobile,36613-2842,1112.0,5,0.2869,5411.0,1.0,2.0,,0.8,0.3333,1.0,0.2414,0.5879,0.6448,0.0036,0.1592,0.0225,0.6565,0.3435,18750.0,22223.0,14300.0,9500.0,26500.0,18500.0,25000.0,19500.0,15250.0,0.9296,0.0,0.0,0.0,0.0141,0.0282,0.0141,0.0,75.0,0.0623,,101693,30.793247,-88.128934
35,University of Montevallo,35115-6000,2184.0,5,0.395,7518.0,0.6414,5.0,,0.5,0.6667,0.5652,0.589,0.4891,0.668,0.06,0.1694,0.0032,0.6392,0.3608,19500.0,15745.0,14625.0,11000.0,24000.0,13000.0,18750.0,17000.0,15372.0,0.8429,0.0,0.0,0.0,0.0143,0.0857,0.0429,0.0071,,0.0804,,101709,33.10625,-86.865099
36,Northwest-Shoals Community College,35661,2095.0,5,0.3699,6636.0,0.4885,,,,,,,,0.7437,0.0893,0.1169,0.0067,0.6291,0.3709,5500.0,5500.0,5500.0,5250.0,10000.0,5433.0,7729.0,5500.0,5500.0,0.8873,0.0141,0.0,0.0,0.0,0.0986,0.0,0.0,,0.167,,101736,34.739788,-87.678089
37,University of North Alabama,35632-0001,5165.0,5,0.3409,8567.0,0.659,2.0,0.0,0.5556,0.5714,0.4118,0.3622,0.5756,0.7344,0.0426,0.121,0.0052,0.6364,0.3636,15000.0,16250.0,16799.0,8652.0,22077.0,15500.0,15750.0,16250.0,16000.0,0.7862,0.0138,0.0069,0.0,0.031,0.069,0.0379,0.0034,,0.1399,,101879,34.806738,-87.681361
38,Northeast Alabama Community College,35986,1565.0,5,0.3913,7228.0,0.3841,,,,,,,,0.7265,0.1482,0.0256,0.0166,0.6728,0.3272,3500.0,3500.0,5850.0,3500.0,6100.0,3500.0,4450.0,4500.0,4394.0,0.9444,0.037,0.0,0.0,0.0185,0.0,0.0,0.0,,0.1712,,101897,34.545471,-85.911664
39,Oakwood University,35896,1353.0,5,0.472,5011.0,0.9492,2.0,,0.0,0.0,0.5185,0.5129,0.0,0.0015,0.0828,0.8004,0.0015,0.5661,0.4339,20750.0,20500.0,21500.0,18750.0,27000.0,22250.0,18750.0,20500.0,21500.0,0.0392,0.0,0.0,0.0,0.0196,0.902,0.0294,0.0,95.0,0.1284,,101912,34.756344,-86.652705
40,Reid State Technical College,36401,254.0,5,0.4552,6814.0,0.6154,,,,,,,,0.3071,0.0118,0.6575,0.0,0.6496,0.3504,,,,,,,,,,0.5,0.0,0.0,0.0,0.0,0.5,0.0,0.0,,0.3717,,101994,31.460265,-86.964797
41,Bishop State Community College,36603-5898,1885.0,5,0.4802,7178.0,0.4354,,,,,,,,0.2159,0.0292,0.6727,0.0058,0.6748,0.3252,,,,,,,,,,0.386,0.0,0.0175,0.0,0.0175,0.5789,0.0,0.0,,0.353,,102030,30.693972,-88.056982
42,Samford University,35229-2240,3604.0,5,0.1149,9220.0,0.9898,5.0,,1.0,0.9,0.4545,0.6667,0.8135,0.8513,0.0402,0.0602,0.0011,0.667,0.333,17494.0,18538.0,15000.0,6500.0,19500.0,14000.0,17044.0,17247.0,15750.0,0.8462,0.0082,0.011,0.0,0.0137,0.0714,0.0275,0.0055,54.0,0.0166,,102049,33.464128,-86.791799
43,Shelton State Community College,35405-8522,4018.0,5,0.381,6739.0,0.5,,,,,,,,0.5142,0.0329,0.4124,0.004,0.6132,0.3868,,,,,,,,,,0.697,0.0,0.0303,0.0,0.0,0.2525,0.0101,0.0101,,0.3011,,102067,33.120531,-87.56148
44,Snead State Community College,35957-0734,1537.0,5,0.3892,7150.0,0.3185,,,,,,,,0.6916,0.1757,0.067,0.0033,0.6278,0.3722,6875.0,5750.0,6956.0,5500.0,9000.0,5579.0,8103.0,6750.0,5500.0,0.9756,0.0,0.0,0.0,0.0,0.0,0.0244,0.0,,0.1947,,102076,34.201495,-86.169897
45,University of South Alabama,36688-0002,8631.0,5,0.3672,7494.0,0.5766,1.0,0.5,0.4,0.7246,0.4464,0.4194,0.5211,0.6013,0.0467,0.2233,0.0066,0.6129,0.3871,17508.0,18750.0,16500.0,9500.0,24929.0,16472.0,20000.0,18500.0,17000.0,0.7897,0.0144,0.0048,0.0012,0.006,0.0493,0.1346,0.0,,0.128,,102094,30.696033,-88.178711
46,Spring Hill College,36608-1791,989.0,5,0.3648,5519.0,0.7748,5.0,0.0,0.6667,0.3333,0.4444,0.5306,0.5739,0.6289,0.0849,0.1405,0.0061,0.5854,0.4146,20000.0,19500.0,23125.0,19500.0,27000.0,17430.0,9500.0,23687.0,21500.0,0.8795,0.0,0.012,0.0,0.0241,0.0361,0.0241,0.0,30.0,0.0475,,102234,30.694751,-88.138199
47,Stillman College,35401,721.0,5,0.7433,5110.0,0.5542,3.0,,,,0.0,0.1532,0.0,0.0596,0.0055,0.9279,0.0055,0.5659,0.4341,14250.0,16375.0,20344.0,13000.0,29067.0,13750.0,17721.0,19000.0,15000.0,0.2553,0.0,0.0,0.0,0.0,0.6809,0.0638,0.0,66.0,0.2225,,102270,33.200006,-87.585278
48,Talladega College,35160,1144.0,5,0.7167,6315.0,0.5181,,0.0,0.0,,0.2,0.2898,0.0,0.0297,0.0463,0.8444,0.0026,0.507,0.493,16750.0,14750.0,12500.0,11000.0,28500.0,14750.0,16566.0,15750.0,14750.0,0.2895,0.0,0.0,0.0,0.0,0.6053,0.1053,0.0,76.0,0.1241,,102298,33.433472,-86.112704
49,H Councill Trenholm State Community College,36108-3199,1522.0,5,0.595,6674.0,0.4667,,,,,,,,0.1827,0.0322,0.7398,0.0026,0.6045,0.3955,,,,,,,,,,0.44,0.02,0.0,0.0,0.0,0.54,0.0,0.0,,0.3234,,102313,32.350109,-86.343057
50,Troy University,36082-0001,10916.0,5,0.4028,7194.0,0.4692,1.0,0.6667,0.6,0.6,0.3333,0.374,0.5884,0.5297,0.0453,0.3269,0.0029,0.6501,0.3499,15000.0,17000.0,15000.0,11000.0,25000.0,14250.0,17756.0,16811.0,15000.0,0.7751,0.0022,0.0109,0.0,0.0,0.0721,0.0218,0.0044,,0.3538,,102368,31.800672,-85.957094
51,Tuskegee University,36088-1920,2184.0,5,0.1318,7398.0,0.886,1.0,,,0.0,0.5,0.5404,0.5,0.0078,0.0041,0.9093,0.0041,0.6264,0.3736,21500.0,22937.0,19500.0,10500.0,27000.0,19000.0,20025.0,22250.0,21343.0,0.1559,0.0114,0.0837,0.0076,0.0,0.4981,0.2129,0.0304,,0.0385,,102377,32.4309,-85.708492
52,United States Sports Academy,36526-7055,68.0,5,0.2197,6266.0,0.4167,3.0,,,,,,,0.4853,0.1324,0.2206,0.0147,0.2647,0.7353,,10819.0,,5596.0,,,,,,0.6,0.0,0.0,0.0,0.0,0.4,0.0,0.0,,0.8028,,102395,30.639329,-87.91163
53,Bevill State Community College,35501,2291.0,5,0.3288,7015.0,0.4524,,,,,,,,0.7324,0.0271,0.1855,0.0013,0.6316,0.3684,,,,,,,,,,0.9364,0.0,0.0,0.0,0.0,0.0636,0.0,0.0,,0.2344,,102429,33.836929,-87.266406
54,University of Alaska Anchorage,99508,7284.0,8,0.1999,9370.0,0.5076,2.0,0.1176,0.0496,0.3208,0.2921,0.1176,0.3612,0.4942,0.1001,0.0339,0.0563,0.6063,0.3937,11222.0,12500.0,10250.0,9500.0,20210.0,11056.0,14553.0,11250.0,9103.0,0.7653,0.0323,0.051,0.0068,0.0289,0.017,0.0493,0.0238,,0.4421,,102553,61.190163,-149.82619
55,Alaska Bible College,99645,37.0,8,0.475,,,,,,,,,0.5,0.8919,0.0,0.027,0.0,0.3243,0.6757,,,,,,,,,,,,,,,,,,88.0,0.2727,,102580,61.598553,-149.111972
56,University of Alaska Fairbanks,99775,4108.0,8,0.2178,9570.0,0.5811,1.0,0.0,0.1163,0.4167,0.3061,0.4,0.4692,0.5241,0.0859,0.037,0.1446,0.5908,0.4092,11191.0,12136.0,11000.0,9500.0,20291.0,12000.0,13250.0,11000.0,9500.0,0.7416,0.0323,0.0632,0.0028,0.0295,0.0056,0.0478,0.0365,,0.45,,102614,64.85756,-147.823146
57,University of Alaska Southeast,99801-8697,999.0,8,0.1634,8436.0,0.5114,2.0,1.0,0.0,0.75,0.25,,0.3729,0.5626,0.0801,0.009,0.1221,0.6817,0.3183,10000.0,12498.0,8258.0,8928.0,19111.0,10000.0,12500.0,10664.0,7717.0,0.8333,0.0111,0.0556,0.0,0.0111,0.0,0.0111,0.0667,,0.5185,,102632,58.384846,-134.638255
58,Alaska Pacific University,99508,347.0,8,0.4103,6497.0,0.4804,3.0,,0.5,0.0,0.0,0.0,0.2353,0.3055,0.1037,0.0317,0.2334,0.7781,0.2219,11000.0,11250.0,16000.0,8250.0,23500.0,12000.0,14632.0,12696.0,10125.0,0.8113,0.0189,0.0,0.0,0.0189,0.0377,0.0189,0.0943,71.0,0.5559,,102669,61.190968,-149.804168
59,Alaska Vocational Technical Center,99664-0889,259.0,8,0.0487,,,,,,,,,,0.4865,0.0232,0.0039,0.2471,0.2548,0.7452,,,,,,,,,,1.0,0.0,0.0,0.0,0.0,0.0,0.0,0.0,,0.5097,,102711,60.110626,-149.444487
60,Charter College,98683-7575,2215.0,8,0.5448,4921.0,0.3295,,0.462,0.3235,1.0,0.507,0.3553,0.604,0.3738,0.1359,0.0519,0.1025,0.7427,0.2573,12000.0,12051.0,9750.0,6334.0,14176.0,10994.0,13227.0,11974.0,9500.0,0.7356,0.0,0.0,0.0,0.1264,0.0805,0.0345,0.023,,0.6059,,102845,45.617798,-122.494766
61,Alaska Career College,99507-1033,317.0,8,0.6401,4139.0,0.12,,,,,,,,0.3186,0.0915,0.0915,0.1861,0.8675,0.1325,6397.0,7199.0,5500.0,4750.0,7377.0,7186.0,7984.0,7199.0,5500.0,1.0,0.0,0.0,0.0,0.0,0.0,0.0,0.0,,0.6246,,103501,61.181443,-149.856954
62,Empire Beauty School-Tucson,85716,138.0,6,0.5962,,,,,,,,,,0.2319,0.4928,0.087,0.0072,0.9638,0.0362,8028.0,7955.0,8025.0,4750.0,13000.0,8028.0,9500.0,8028.0,7667.0,0.6,0.0,0.0,0.0,0.4,0.0,0.0,0.0,,0.4058,,103741,32.235657,-110.927187
63,Carrington College-Phoenix North,85051-4063,1281.0,6,0.5513,5694.0,0.5098,,,,,,,,0.2108,0.5433,0.0898,0.0406,0.7955,0.2045,9496.0,9229.0,9500.0,4845.0,9500.0,9494.0,9500.0,9261.0,5555.0,0.7308,0.0385,0.0769,0.0,0.0385,0.0769,0.0385,0.0,,0.4731,,103893,33.565758,-112.104601
64,Carrington College-Mesa,85210-5005,591.0,6,0.4731,6628.0,0.3077,,,,,,,,0.269,0.4382,0.0795,0.0897,0.8883,0.1117,9496.0,9229.0,9500.0,4845.0,9500.0,9494.0,9500.0,9261.0,5555.0,0.75,0.0,0.0625,0.0,0.125,0.0625,0.0,0.0,,0.5465,,103909,33.39248,-111.853218
65,Carrington College-Tucson,85745-2974,517.0,6,0.577,5362.0,0.3793,,,,,,,,0.1857,0.6306,0.0774,0.0174,0.8453,0.1547,9496.0,9229.0,9500.0,4845.0,9500.0,9494.0,9500.0,9261.0,5555.0,0.6364,0.0909,0.1818,0.0,0.0,0.0909,0.0,0.0,,0.4468,,103927,32.224391,-110.983056
66,Arizona Academy of Beauty,85712,48.0,6,0.6988,,,,,,,,,,0.25,0.4792,0.125,0.0208,0.9375,0.0625,,,,4750.0,5250.0,,,,,0.0,0.0,0.0,0.0,1.0,0.0,0.0,0.0,,0.4792,,103954,32.237253,-110.872305
67,Miller-Motte College-Arizona Automotive Institute,85301-3579,398.0,6,0.6214,,,,,,,,,,0.299,0.3894,0.1281,0.1156,0.098,0.902,11457.0,10657.0,9111.0,6334.0,15917.0,9500.0,11943.0,11630.0,9500.0,0.95,0.0,0.0,0.0,0.05,0.0,0.0,0.0,,0.5779,,103963,33.537249,-112.157344
68,Brookline College-Phoenix,85021,1000.0,6,0.545,4348.0,1.0,,1.0,0.7857,0.5,0.693,0.2564,0.5065,0.261,0.302,0.127,0.057,0.877,0.123,9500.0,9491.0,11758.0,6306.0,9500.0,9500.0,9500.0,9500.0,9124.0,0.6333,0.1333,0.0,0.0,0.1333,0.0,0.1,0.0,,0.717,,104090,33.566102,-112.112473
69,Arizona State University Campus Immersion,85287,64216.0,6,0.3276,11668.0,0.7237,3.0,0.5588,0.4174,0.7914,0.6054,0.5042,0.6722,0.4637,0.262,0.044,0.0114,0.4968,0.5032,13750.0,13750.0,13245.0,9132.0,19500.0,13750.0,16299.0,13461.0,12000.0,0.6398,0.012,0.0752,0.0003,0.0805,0.031,0.1091,0.0082,,0.0936,,104151,33.417721,-111.934383
70,Arizona Western College,85365-8834,7388.0,6,0.4027,7480.0,0.3269,,,,,,,,0.1174,0.6913,0.0119,0.0095,0.5881,0.4119,4500.0,4500.0,2750.0,4084.0,4826.0,4750.0,5750.0,4390.0,3433.0,0.6525,0.0169,0.1017,0.0085,0.1356,0.0339,0.0424,0.0085,,0.2351,,104160,32.689306,-114.495968
71,University of Arizona,85721-0066,36560.0,6,0.2868,11400.0,0.7586,5.0,0.5882,0.3485,0.725,0.5977,0.5465,0.659,0.4963,0.2842,0.0406,0.0128,0.5602,0.4398,13770.0,13000.0,14000.0,8250.0,19620.0,13997.0,15000.0,13552.0,13419.0,0.6067,0.0108,0.0625,0.0,0.093,0.0184,0.1038,0.008,,0.1419,,104179,32.232672,-110.950815
72,Central Arizona College,85128-9030,4388.0,6,0.3356,6834.0,1.0,,,,,,,,0.4088,0.3731,0.0624,0.0367,0.6313,0.3687,6469.0,6804.0,5500.0,5500.0,10010.0,6000.0,8564.0,6275.0,5500.0,0.6957,0.0543,0.0217,0.0109,0.1087,0.0652,0.0435,0.0,,0.3689,,104346,32.957092,-111.652501
73,Charles of Italy Beauty College,86403,56.0,6,0.5402,,,,,,,,,,0.6071,0.1964,0.0179,0.0536,0.9464,0.0536,,,,,7388.0,,7358.0,,6600.0,0.5,0.0,0.25,0.0,0.0,0.0,0.0,0.25,,0.625,,104391,34.477485,-114.332686
74,Cochise County Community College District,85635-2317,2922.0,6,0.3814,6461.0,0.3913,,,,,,,,0.3597,0.4942,0.053,0.0089,0.5821,0.4179,5250.0,6500.0,5500.0,5500.0,6750.0,4787.0,7000.0,6125.0,4787.0,0.8384,0.0101,0.0303,0.0,0.0808,0.0101,0.0101,0.0,,0.3527,,104425,31.564597,-110.246946
75,Empire Beauty School-Chandler,85224,43.0,6,0.4937,,,,,,,,,,0.3023,0.1163,0.2558,0.0233,0.9535,0.0465,7972.0,7667.0,7917.0,4750.0,10667.0,9500.0,7917.0,7695.0,7667.0,0.0,0.0,0.0,0.0,0.6667,0.3333,0.0,0.0,,0.5349,,104443,33.347586,-111.860423
76,Avalon Institute-Mesa,85210,377.0,6,0.5774,,,,,,,,,,0.3793,0.3793,0.1141,0.0239,0.9708,0.0292,6332.0,6285.0,5500.0,3167.0,6332.0,7894.0,6332.0,6307.0,5500.0,0.8,0.0,0.0,0.0,0.1,0.0,0.1,0.0,,0.3528,,104568,33.376583,-111.858305
77,Eastern Arizona College,85552-0769,3187.0,6,0.2113,8011.0,0.3398,,,,,,,,0.6153,0.2294,0.021,0.0624,0.5927,0.4073,,,,,,,,,,0.9195,0.0,0.0,0.0,0.069,0.0,0.0115,0.0,,0.4901,,104577,32.843664,-109.76234
78,Embry-Riddle Aeronautical University-Prescott,86301-3720,3015.0,6,0.1901,9290.0,0.7611,5.0,0.6667,1.0,0.7931,0.6667,0.4118,0.7182,0.5864,0.1516,0.0202,0.0063,0.2667,0.7333,13000.0,15000.0,14750.0,8424.0,23666.0,13974.0,12500.0,15750.0,16000.0,0.7703,0.0068,0.027,0.0,0.027,0.0203,0.0946,0.0,,0.0626,,104586,34.616766,-112.449741
79,The School of Architecture,85253,,6,,3213.0,,,,,,,,,,,,,,,,,,,,,,,,1.0,0.0,0.0,0.0,0.0,0.0,0.0,0.0,,,,104665,33.566649,-111.941953
80,Glendale Community College,85302,10528.0,6,0.2936,9548.0,1.0,,,,,,,,0.3749,0.422,0.0666,0.0136,0.5618,0.4382,4081.0,5000.0,3500.0,4500.0,6960.0,4500.0,4987.0,4500.0,3500.0,0.8144,0.0189,0.0152,0.0,0.0833,0.0341,0.0341,0.0,,0.2909,,104708,33.570226,-112.190735
81,Grand Canyon University,85017,64210.0,6,0.4311,6956.0,0.0868,2.0,0.5769,0.2857,0.5556,0.3931,0.3871,0.4995,0.4855,0.2302,0.1499,0.0095,0.7077,0.2923,13842.0,10764.0,15000.0,6533.0,22114.0,12000.0,12670.0,12720.0,12000.0,0.6513,0.025,0.1272,0.0058,0.0655,0.0925,0.0328,0.0,,0.5297,,104717,33.513231,-112.129929
82,GateWay Community College,85034,3691.0,6,0.2869,8577.0,1.0,,,,,,,,0.285,0.4787,0.1084,0.0322,0.67,0.33,4500.0,4500.0,4500.0,3500.0,6750.0,4500.0,4500.0,4500.0,3500.0,0.7368,0.0175,0.0439,0.0,0.1053,0.0526,0.0351,0.0088,,0.4689,,105145,33.449686,-111.997077
83,Mesa Community College,85202,12167.0,6,0.2289,9582.0,1.0,,,,,,,,0.4452,0.336,0.0593,0.0341,0.5407,0.4593,4500.0,4603.0,3500.0,4500.0,7473.0,4500.0,4750.0,4500.0,4000.0,0.8082,0.024,0.0068,0.0,0.0822,0.0445,0.0308,0.0034,,0.3251,,105154,33.390323,-111.871255
84,Mohave Community College,86409-1238,2622.0,6,0.3451,6171.0,0.3361,,,,,,,,0.6472,0.2475,0.0133,0.0206,0.6968,0.3032,5938.0,9500.0,4125.0,6682.0,9700.0,7000.0,9414.0,8500.0,4992.0,0.84,0.0133,0.0533,0.0,0.0133,0.0267,0.0533,0.0,,0.4669,,105206,35.270996,-114.029838
85,Universal Technical Institute of Arizona Inc-Motorcycle Mechanics Institute Division,85323,779.0,6,0.4315,5170.0,,,,,,,,,0.6098,0.1528,0.0488,0.0218,0.068,0.932,10827.0,10588.0,10239.0,4750.0,13097.0,10375.0,12242.0,9532.0,10239.0,1.0,0.0,0.0,0.0,0.0,0.0,0.0,0.0,,0.534,,105215,33.684428,-112.121336
86,Dine College,86556,1224.0,6,0.4755,6347.0,0.75,,,0.0588,,,,,0.009,0.0033,0.0025,0.9796,0.7647,0.2353,,,,,,,,,,0.3492,0.0,0.0317,0.0,0.0159,0.0,0.0635,0.5397,,0.5529,,105297,36.293328,-109.21684
87,Northern Arizona University,86011-4092,23772.0,6,0.3174,8903.0,0.6536,2.0,0.3333,0.4128,0.7308,0.5401,0.4242,0.6264,0.5602,0.2608,0.0309,0.0283,0.6354,0.3646,12500.0,12500.0,13533.0,8250.0,19000.0,12500.0,12990.0,13000.0,12875.0,0.7592,0.012,0.041,0.003,0.0659,0.018,0.0589,0.023,,0.1595,,105330,35.188449,-111.653724
88,Northland Pioneer College,86025-0610,1124.0,6,0.153,6888.0,0.436,,,,,,,,0.4235,0.1201,0.0009,0.3888,0.6904,0.3096,,,,,,,,,,0.6267,0.0,0.2133,0.0,0.04,0.0133,0.0667,0.04,,0.2864,,105349,34.93031,-110.142199
89,Ottawa University-Phoenix,85021,348.0,6,0.4318,6026.0,,,,,,,,,0.4856,0.3132,0.0718,0.0201,0.7557,0.2443,13726.0,12975.0,12000.0,9500.0,21500.0,10500.0,17123.0,14680.0,10000.0,0.5,0.0,0.0,0.0,0.5,0.0,0.0,0.0,52.0,0.759,,105367,33.572173,-112.113001
90,Phoenix College,85013,6674.0,6,0.3419,9206.0,1.0,,,,,,,,0.2206,0.5641,0.0947,0.025,0.6606,0.3394,4500.0,5250.0,5250.0,4750.0,6750.0,4887.0,5550.0,5250.0,4500.0,0.7027,0.0203,0.0405,0.0,0.1284,0.0405,0.0473,0.0203,,0.3766,,105428,33.481361,-112.088293
91,Pima Community College,85709-1275,13128.0,6,0.3136,7256.0,0.278,,,,,,,,0.3537,0.4911,0.0491,0.0197,0.5891,0.4109,3911.0,4875.0,3500.0,3500.0,7000.0,4000.0,5250.0,4750.0,3500.0,0.6951,0.0244,0.0203,0.0041,0.1707,0.0285,0.0488,0.0041,,0.4051,,105525,32.222125,-110.886659
92,Pima Medical Institute-Tucson,85712,2485.0,6,0.5309,5216.0,0.2845,,1.0,0.5,0.75,0.6941,0.4762,0.6286,0.3513,0.3911,0.0861,0.0225,0.8197,0.1803,9500.0,9500.0,9500.0,4750.0,9500.0,9500.0,9500.0,9498.0,5500.0,0.6912,0.0735,0.0,0.0,0.2059,0.0294,0.0,0.0,,0.6503,,105534,32.248067,-110.878783
93,Pima Medical Institute-Albuquerque,87110,782.0,6,0.5674,5252.0,0.4891,,,,,,,,0.1662,0.4872,0.0205,0.2174,0.8389,0.1611,5348.0,4788.0,5500.0,3455.0,5500.0,5500.0,5083.0,4788.0,5457.0,0.5111,0.0889,0.0,0.0,0.3556,0.0444,0.0,0.0,,0.4655,,105543,35.104855,-106.59488
94,Prescott College,86301,383.0,6,0.4455,5070.0,0.359,3.0,,,,0.5,0.5,0.3913,0.6789,0.0444,0.0287,0.0235,0.6554,0.3446,12793.0,12500.0,10500.0,11000.0,16300.0,12980.0,13834.0,12500.0,11100.0,0.6939,0.102,0.0816,0.0,0.0408,0.0408,0.0,0.0408,,0.3196,,105589,34.5452,-112.477185
95,Refrigeration School Inc,85034-1816,1007.0,6,0.604,4379.0,0.9,,,,,,,,0.3456,0.3297,0.1053,0.1559,0.0725,0.9275,7917.0,7917.0,7072.0,4750.0,8233.0,7917.0,8233.0,7917.0,6122.0,0.5556,0.0,0.0,0.0,0.2222,0.1111,0.0,0.1111,,0.5819,,105659,33.448692,-111.989357
96,Rio Salado College,85281,3824.0,6,0.0936,6744.0,1.0,,,,,,,,0.4603,0.3154,0.1015,0.0199,0.6425,0.3575,4500.0,4500.0,3500.0,3722.0,9500.0,4347.0,4500.0,4363.0,3201.0,0.7692,0.0192,0.0,0.0,0.0962,0.0769,0.0192,0.0192,,0.3107,,105668,33.413309,-111.97417
97,Roberto-Venn School of Luthiery,85007,12.0,6,0.4,,,,,,,,,,0.9167,0.0,0.0,0.0,0.0,1.0,,,,,,,,,,1.0,0.0,0.0,0.0,0.0,0.0,0.0,0.0,,0.5833,,105677,33.45489,-112.086161
98,Scottsdale Community College,85256,4764.0,6,0.1468,9887.0,1.0,,,,,,,,0.5267,0.2655,0.051,0.0432,0.5735,0.4265,4222.0,5243.0,3500.0,4100.0,8000.0,4500.0,5250.0,4500.0,3500.0,0.8504,0.0079,0.0157,0.0,0.0551,0.0315,0.0315,0.0079,,0.3284,,105747,33.51135,-111.885186
99,South Mountain Community College,85042,2395.0,6,0.3346,9586.0,1.0,,,,,,,,0.1495,0.5754,0.1457,0.0355,0.5929,0.4071,4500.0,4847.0,3839.0,4500.0,8000.0,4375.0,5000.0,4500.0,3500.0,0.5345,0.0172,0.0172,0.0,0.2069,0.1034,0.0862,0.0345,,0.2744,,105792,33.382406,-112.032635
100,Arizona Christian University,85306-3216,1012.0,6,0.3924,5291.0,0.3222,5.0,0.0,0.0,,0.2414,0.1875,0.4754,0.4634,0.2806,0.1067,0.0148,0.3874,0.6126,6250.0,6500.0,5500.0,5500.0,23000.0,5500.0,9983.0,7500.0,5500.0,0.8621,0.1034,0.0,0.0,0.0,0.0345,0.0,0.0,88.0,0.1111,,105899,33.622952,-112.181776
101,Universal Technical Institute of Arizona Inc,85323,1995.0,6,0.4199,5472.0,,,,,,,,,0.2692,0.2135,0.0241,0.0386,0.0441,0.9559,11688.0,10827.0,11495.0,4750.0,13124.0,11172.0,10500.0,10876.0,11254.0,0.7818,0.0364,0.0,0.0,0.1455,0.0,0.0364,0.0,,0.2085,,106041,33.453005,-112.288123
102,Yavapai College,86301,4004.0,6,0.2729,7748.0,0.2906,,,,,,,,0.6216,0.2145,0.0125,0.024,0.6014,0.3986,6750.0,7500.0,5500.0,5893.0,9000.0,6750.0,9467.0,6804.0,5500.0,0.7549,0.0098,0.1471,0.0,0.0588,0.0196,0.0098,0.0,,0.4592,,106148,34.547495,-112.453395
103,University of Arkansas at Little Rock,72204,5025.0,5,0.4255,7772.0,1.0,1.0,,1.0,0.6667,0.2979,0.3013,0.4448,0.4917,0.0289,0.2521,0.0092,0.6416,0.3584,14250.0,15500.0,12000.0,11220.0,22000.0,13000.0,16600.0,15026.0,12908.0,0.7065,0.0163,0.0272,0.0,0.0109,0.1277,0.0,0.0027,,0.3795,,106245,34.723254,-92.339778
104,University of Arkansas for Medical Sciences,72205-7199,1072.0,5,0.326,9475.0,0.8949,,,,,,,,0.6427,0.0849,0.1185,0.0028,0.8545,0.1455,12500.0,16408.0,12500.0,4993.0,14000.0,12994.0,16000.0,13000.0,12395.0,0.6883,0.009,0.0112,0.0045,0.0224,0.065,0.1547,0.0067,,0.6476,,106263,34.749048,-92.320046
105,Arkansas Baptist College,72202-6068,414.0,5,0.6659,4397.0,0.5143,,,,,0.0,0.0877,0.25,0.0821,0.0338,0.7971,0.0024,0.2174,0.7826,5500.0,9250.0,6500.0,8250.0,25375.0,8250.0,15375.0,13215.0,6500.0,0.0,0.0,0.0,0.0,0.0,1.0,0.0,0.0,54.0,0.186,,106306,34.734751,-92.290555
106,Arkansas Beauty School-Little Rock,72209,28.0,5,0.6083,,,,,,,,,,0.2143,0.2143,0.5714,0.0,0.9286,0.0714,,6333.0,,4445.0,6333.0,,6333.0,,3666.0,0.25,0.0,0.0,0.0,0.0,0.75,0.0,0.0,,0.3571,,106315,34.672171,-92.343366
107,Arkansas Beauty College,72801,33.0,5,0.5811,,,,,,,,,,0.7576,0.1818,0.0303,0.0,1.0,0.0,,,,,,,,,,1.0,0.0,0.0,0.0,0.0,0.0,0.0,0.0,,0.1818,,106324,35.27902,-93.135369
108,Lyon College,72501,576.0,5,0.388,6087.0,0.8596,5.0,,0.4,0.3333,0.2667,0.1333,0.4877,0.5747,0.0955,0.0642,0.0104,0.4115,0.5885,11000.0,9500.0,11185.0,8750.0,21500.0,8373.0,7500.0,13761.0,11000.0,0.7959,0.0,0.1633,0.0,0.0204,0.0,0.0204,0.0,66.0,0.0276,,106342,35.777619,-91.625354
109,Arkansas Technical School,72114,62.0,5,0.7414,,,,,,,,,,0.1129,0.0323,0.8548,0.0,0.2419,0.7581,,,,5500.0,16500.0,13000.0,13000.0,9500.0,9833.0,0.2,0.0,0.0,0.0,0.0,0.8,0.0,0.0,,0.2258,,106351,34.753843,-92.266429
110,Arthur's Beauty College,72901-3342,25.0,5,0.7674,,,,,,,,,,0.76,0.08,0.12,0.04,0.96,0.04,,9300.0,,4750.0,10500.0,,9500.0,,7667.0,1.0,0.0,0.0,0.0,0.0,0.0,0.0,0.0,,0.36,,106360,35.379955,-94.410967
111,University of Arkansas,72701,24001.0,5,0.1795,10047.0,0.8463,1.0,0.75,0.5417,0.6786,0.6614,0.6,0.7097,0.7387,0.1039,0.0446,0.0077,0.5608,0.4392,15250.0,15000.0,16750.0,8066.0,21500.0,15000.0,15753.0,16544.0,15746.0,0.7144,0.0103,0.0428,0.0,0.0472,0.0347,0.1004,0.0059,,0.0851,,106397,36.070009,-94.176981
112,University of Arkansas at Pine Bluff,71601,2444.0,5,0.6984,6008.0,0.8174,1.0,,0.0,1.0,0.375,0.4073,0.375,0.0286,0.0221,0.9043,0.0053,0.5912,0.4088,14250.0,14250.0,15000.0,10250.0,24202.0,14000.0,14198.0,15000.0,14500.0,0.1634,0.005,0.0,0.005,0.0099,0.6287,0.1634,0.005,,0.0914,,106412,34.244031,-92.018683
113,Arkansas State University-Beebe,72012-1000,1787.0,5,0.3612,5096.0,0.6063,,,,,,,,0.8428,0.0526,0.0571,0.005,0.6346,0.3654,5949.0,6188.0,5500.0,5500.0,8093.0,5500.0,7875.0,5500.0,5500.0,0.9263,0.0316,0.0,0.0,0.0105,0.0211,0.0105,0.0,,0.1834,,106449,35.074176,-91.895351
114,Arkansas State University,72401,7478.0,5,0.367,7423.0,1.0,1.0,1.0,0.75,0.7,0.3721,0.4201,0.572,0.7113,0.0444,0.14,0.0028,0.6272,0.3728,14421.0,16000.0,14750.0,9500.0,20500.0,15000.0,17000.0,15062.0,14323.0,0.7348,0.0079,0.0589,0.002,0.0275,0.0491,0.0825,0.0059,,0.1922,,106458,35.842388,-90.679988
115,Arkansas Tech University,72801-2222,6467.0,5,0.3553,6845.0,0.9914,2.0,,0.4,0.56,0.475,0.1841,0.5035,0.7299,0.0971,0.0721,0.0076,0.559,0.441,11671.0,11750.0,10477.0,7543.0,21000.0,10500.0,16510.0,12250.0,9918.0,0.8402,0.003,0.0059,0.0,0.0148,0.0296,0.0976,0.0059,,0.1405,,106467,35.293237,-93.13562
116,University of Arkansas at Monticello,71656,1946.0,5,0.5157,5550.0,1.0,,,,0.3333,0.4583,0.1824,0.395,0.5206,0.0704,0.2929,0.0015,0.5853,0.4147,11828.0,11179.0,11750.0,9673.0,19971.0,10577.0,12500.0,12000.0,11000.0,0.8774,0.0,0.0258,0.0,0.0,0.0452,0.0194,0.0065,,0.1975,,106485,33.590909,-91.811153
117,Arthur's Beauty College,72076,38.0,5,0.7297,,,,,,,,,,0.6842,0.0263,0.2895,0.0,1.0,0.0,,7599.0,,4750.0,9833.0,,9500.0,,6434.0,1.0,0.0,0.0,0.0,0.0,0.0,0.0,0.0,,0.2105,,106494,34.891572,-92.102579
118,Baptist Health College Little Rock,72210-2827,666.0,5,0.888,6733.0,0.5833,1.0,,,,,,,0.5961,0.0646,0.2883,0.0045,0.8784,0.1216,9589.0,9500.0,8750.0,4875.0,10000.0,9539.0,10000.0,9500.0,8657.0,0.8929,0.0,0.0,0.0,0.0,0.1071,0.0,0.0,54.0,0.4595,,106546,34.713115,-92.40692
119,Black River Technical College,72455,1068.0,5,0.4985,4916.0,0.5938,,,,,,,,0.8979,0.0365,0.0309,0.0009,0.6826,0.3174,6000.0,6937.0,5500.0,5500.0,9500.0,5244.0,9000.0,6780.0,5000.0,0.9825,0.0,0.0,0.0,0.0,0.0175,0.0,0.0,,0.3275,,106625,36.239793,-90.951033
120,University of Central Arkansas,72035-0001,7763.0,5,0.3658,7271.0,0.8036,5.0,0.0,0.5714,0.62,0.4381,0.3634,0.5297,0.6571,0.0642,0.1671,0.003,0.6157,0.3843,13500.0,12981.0,12713.0,8315.0,20346.0,12250.0,16375.0,13422.0,12465.0,0.8233,0.0188,0.0038,0.0019,0.015,0.047,0.0583,0.0,,0.0797,,106704,35.077945,-92.457672
121,Central Baptist College,72034,546.0,5,0.4768,5492.0,0.3011,1.0,,1.0,,0.25,0.1875,0.4096,0.619,0.0971,0.1575,0.0128,0.4524,0.5476,12000.0,13382.0,14000.0,9500.0,22250.0,11613.0,18750.0,15950.0,11200.0,0.9286,0.0,0.0,0.0,0.0357,0.0,0.0357,0.0,54.0,0.164,,106713,35.083838,-92.445021
122,Cossatot Community College of the University of Arkansas,71832,858.0,5,0.3463,5020.0,0.4571,,,,,,,,0.521,0.2681,0.1515,0.0105,0.6911,0.3089,,,,,,,,,,0.96,0.0,0.0,0.0,0.02,0.0,0.0,0.02,,0.1949,,106795,34.043389,-94.3673
123,Crowley's Ridge College,72450,170.0,5,0.5812,5516.0,0.475,,0.0,,,,0.0,0.2553,0.7765,0.0118,0.1941,0.0,0.4412,0.5588,13375.0,10500.0,22500.0,8580.0,26228.0,12000.0,,18636.0,,1.0,0.0,0.0,0.0,0.0,0.0,0.0,0.0,74.0,0.0152,,106810,36.064845,-90.584395
124,East Arkansas Community College,72335-2204,606.0,5,0.5107,4914.0,0.4615,,,,,,,,0.4884,0.0231,0.4472,0.0033,0.7244,0.2756,5963.0,4500.0,3875.0,3500.0,6000.0,4875.0,5758.0,4000.0,3500.0,0.881,0.0,0.0,0.0,0.0,0.119,0.0,0.0,,0.3409,,106883,35.041655,-90.767726
125,Eastern College of Health Vocations-Little Rock,72205,62.0,5,0.696,,,,,,,,,,0.1613,0.0323,0.8065,0.0,0.9839,0.0161,,3407.0,,2045.0,3412.0,3412.0,3412.0,3412.0,3348.0,0.6667,0.0,0.0,0.0,0.0,0.3333,0.0,0.0,,0.4516,,106892,34.75128,-92.341891
126,Paul Mitchell the School-Little Rock,72117,330.0,5,0.675,,,,,,,,,,0.603,0.097,0.2273,0.0364,0.9364,0.0636,9524.0,9833.0,9833.0,4918.0,10725.0,9829.0,12238.0,9833.0,9512.0,0.6667,0.0,0.0,0.0,0.0,0.3333,0.0,0.0,,0.3545,,106908,34.789913,-92.222202
127,National Park College,71913,1903.0,5,0.7466,5669.0,1.0,,,,,,,,0.7183,0.1156,0.1161,0.0163,0.6211,0.3789,5500.0,7000.0,5500.0,5250.0,10500.0,5099.0,8899.0,7000.0,5250.0,0.9355,0.0,0.0,0.0,0.0,0.0323,0.0215,0.0,,0.3163,,106980,34.512687,-93.119248
128,University of Arkansas Community College-Batesville,72503-3350,698.0,5,0.4273,4573.0,0.5,,,,,,,,0.8195,0.0802,0.0258,0.0072,0.6977,0.3023,6500.0,8200.0,5305.0,6500.0,10250.0,5475.0,8525.0,7490.0,5250.0,0.9565,0.0,0.0,0.0,0.0217,0.0217,0.0,0.0,,0.2292,,106999,35.792923,-91.615852
129,Harding University,72149-5615,3262.0,5,0.2128,7507.0,0.7235,1.0,,1.0,1.0,0.5111,0.3774,0.6972,0.7961,0.0389,0.0515,0.0037,0.5582,0.4418,23125.0,22214.0,21480.0,10644.0,26500.0,20500.0,20500.0,22532.0,21931.0,0.9352,0.0137,0.0068,0.0,0.0137,0.0205,0.0068,0.0,74.0,0.0445,,107044,35.247386,-91.726143
130,Henderson State University,71999-0001,2205.0,5,0.4638,6613.0,0.9947,1.0,,0.4444,0.5,0.3571,0.2108,0.4427,0.6454,0.0653,0.1755,0.0027,0.5274,0.4726,11878.0,12000.0,12000.0,8250.0,19500.0,11000.0,17346.0,12500.0,11000.0,0.8061,0.0364,0.0,0.0,0.0182,0.0424,0.0364,0.0061,,0.1104,,107071,34.128155,-93.059703
131,Hendrix College,72032-3080,1103.0,5,0.2863,7615.0,1.0,5.0,0.0,1.0,0.9375,0.6429,0.6154,0.7372,0.689,0.0943,0.0752,0.0054,0.5113,0.4887,20750.0,19488.0,19500.0,6500.0,26688.0,18500.0,,21500.0,,0.8791,0.011,0.0,0.0,0.0549,0.033,0.011,0.0,71.0,0.0054,,107080,35.101565,-92.443256
132,Hot Springs Beauty College,71901,85.0,5,0.7417,,,,,,,,,,0.8,0.0471,0.1412,0.0,0.9647,0.0353,,,,4750.0,9700.0,,9500.0,,6950.0,1.0,0.0,0.0,0.0,0.0,0.0,0.0,0.0,,0.3176,,107099,34.496057,-93.037277
133,Jefferson Regional School of Nursing,71603,66.0,5,0.4124,7074.0,,,,,,,,,0.6364,0.0606,0.303,0.0,0.8788,0.1212,,6495.0,,4750.0,12000.0,,7500.0,,5750.0,1.0,0.0,0.0,0.0,0.0,0.0,0.0,0.0,,0.303,,107123,34.187831,-92.018045
134,John Brown University,72761,1381.0,5,0.2489,7137.0,0.9483,5.0,,0.6667,0.7143,0.6522,0.0,0.7235,0.7147,0.076,0.0152,0.0159,0.5981,0.4019,17489.0,15735.0,16750.0,8250.0,21250.0,15750.0,17951.0,17187.0,16750.0,0.8219,0.0274,0.0137,0.0,0.0411,0.0137,0.0274,0.0274,,0.0891,,107141,36.189812,-94.560283
135,Career Academy of Hair Design,72764-7128,196.0,5,0.6787,,,,,,,,,,0.6531,0.1888,0.0969,0.0561,0.9898,0.0102,5481.0,6333.0,5857.0,4750.0,6365.0,,6365.0,,4530.0,0.7143,0.0,0.0,0.0,0.0476,0.0952,0.0476,0.0952,,0.4388,,107220,36.167605,-94.12947
136,Academy of Salon and Spa,72901,53.0,5,0.5978,,,,,,,,,,0.6792,0.1321,0.0755,0.0755,1.0,0.0,,3742.0,,3500.0,4833.0,,4833.0,,3666.0,1.0,0.0,0.0,0.0,0.0,0.0,0.0,0.0,,0.3019,,107293,35.38097,-94.41616
137,Arkansas State University Mid-South,72301-3829,525.0,5,0.3325,4123.0,0.4578,,,,,,,,0.341,0.0514,0.541,0.0038,0.6514,0.3486,,,,,,,,,,0.6316,0.0,0.0,0.0,0.0526,0.2895,0.0263,0.0,,0.1996,,107318,35.145736,-90.22285
138,Arkansas Northeastern College,72316-1109,786.0,5,0.3461,4999.0,1.0,,,,,,,,0.6005,0.0509,0.3295,0.0038,0.6578,0.3422,,,,,,,,,,0.9737,0.0,0.0,0.0,0.0263,0.0,0.0,0.0,,0.2677,,107327,35.898597,-89.921005
139,New Tyler Barber College Inc,72114-4973,33.0,5,0.5833,,,,,,,,,,0.0,0.0303,0.9697,0.0,0.3333,0.6667,,,,,,,,,,0.0,0.0,0.0,0.0,0.0,1.0,0.0,0.0,,0.5152,,107442,34.760085,-92.254171
140,North Arkansas College,72601-5508,1161.0,5,0.4414,5367.0,0.5113,,,,,,,,0.82,0.0801,0.0241,0.0009,0.6202,0.3798,5734.0,7725.0,4511.0,5250.0,9000.0,5500.0,8938.0,6750.0,5070.0,0.9265,0.0,0.0,0.0,0.0294,0.0,0.0,0.0441,,0.2506,,107460,36.219909,-93.08844
141,Northwest Technical Institute,72764,155.0,5,0.5323,,,,,,,,,,0.471,0.3613,0.0323,0.0129,0.3161,0.6839,,,,,,,,,,1.0,0.0,0.0,0.0,0.0,0.0,0.0,0.0,,0.3806,,107488,36.178032,-94.115346
142,Ouachita Baptist University,71998-0001,1572.0,5,0.2428,6545.0,0.95,3.0,1.0,1.0,1.0,0.2632,0.4848,0.7025,0.7964,0.0573,0.0776,0.0025,0.5738,0.4262,14550.0,14750.0,15000.0,5500.0,21050.0,12750.0,,16750.0,,0.9434,0.0,0.0,0.0,0.0189,0.0189,0.0189,0.0,75.0,0.014,,107512,34.126093,-93.052471
143,Arkansas State University Three Rivers,72104-0816,424.0,5,0.2212,4732.0,0.5417,,,,,,,,0.6321,0.0566,0.2406,0.0024,0.7193,0.2807,5890.0,6896.0,7690.0,5932.0,10250.0,4990.0,7264.0,6807.0,5250.0,0.8974,0.0,0.0,0.0,0.0,0.1026,0.0,0.0,,0.144,,107521,34.378745,-92.821416
144,Ozarka College,72556-0010,627.0,5,0.5508,4824.0,0.4474,,,,,,,,0.9522,0.0159,0.0159,0.008,0.7544,0.2456,5375.0,9415.0,3900.0,6313.0,9818.0,5175.0,9500.0,8250.0,5625.0,0.9706,0.0,0.0,0.0,0.0,0.0294,0.0,0.0,,0.2165,,107549,36.053031,-91.896355
145,University of the Ozarks,72830,775.0,5,0.3541,6875.0,0.7969,5.0,0.0,0.5,1.0,0.4583,0.5385,0.4667,0.4129,0.1303,0.0542,0.009,0.5265,0.4735,9500.0,10900.0,13000.0,5500.0,20875.0,13000.0,13950.0,8750.0,11000.0,0.7647,0.0,0.0,0.0196,0.0588,0.0196,0.0588,0.0588,66.0,0.0191,,107558,35.476278,-93.467221
146,University of Arkansas Community College-Morrilton,72110,1586.0,5,0.4728,5311.0,1.0,2.0,,,,,,,0.7213,0.1103,0.0845,0.0019,0.6274,0.3726,5500.0,7746.0,5500.0,5500.0,10315.0,5500.0,8198.0,6625.0,5499.0,0.9839,0.0,0.0,0.0,0.0,0.0,0.0,0.0161,,0.2729,,107585,35.172136,-92.728507
147,Philander Smith College,72202-3799,709.0,5,0.7547,5891.0,1.0,,,0.0,,0.5,0.2785,,0.0028,0.0141,0.9041,0.0,0.6389,0.3611,14000.0,15000.0,15000.0,12000.0,24736.0,14749.0,15480.0,14250.0,14250.0,0.0333,0.0,0.0,0.0333,0.0,0.8,0.1333,0.0,71.0,0.1521,,107600,34.737131,-92.283015
148,Phillips Community College of the University of Arkansas,72342-0785,611.0,5,0.3947,4947.0,0.7571,,,,,,,,0.3977,0.0295,0.5532,0.0016,0.6907,0.3093,,,,,,,,,,0.8704,0.0,0.0,0.0,0.0185,0.1111,0.0,0.0,,0.159,,107619,34.546155,-90.616884
149,Southeast Arkansas College,71603,808.0,5,0.6316,4921.0,0.6486,,,,,,,,0.1943,0.2203,0.5668,0.0025,0.7351,0.2649,5429.0,6562.0,5380.0,5601.0,8600.0,5357.0,7039.0,6500.0,5284.0,0.4792,0.0208,0.0,0.0,0.0208,0.4792,0.0,0.0,,0.4443,,107637,34.210309,-92.025936
150,Professional Cosmetology Education Center,71730-4009,37.0,5,0.5574,,,,,,,,,,0.5676,0.027,0.3784,0.0,1.0,0.0,,,,6118.0,9833.0,,10633.0,,8311.0,1.0,0.0,0.0,0.0,0.0,0.0,0.0,0.0,,0.5135,,107655,33.216032,-92.664101
151,University of Arkansas-Pulaski Technical College,72118-3347,4110.0,5,0.5023,5027.0,1.0,,,,,,,,0.4187,0.0669,0.39,0.0036,0.6659,0.3341,6500.0,7754.0,5500.0,5693.0,12080.0,5250.0,9000.0,8001.0,5500.0,0.8377,0.013,0.0065,0.0,0.026,0.0974,0.0195,0.0,,0.4108,,107664,34.782783,-92.299184
152,University of Arkansas Hope-Texarkana,71801,760.0,5,0.4387,4836.0,0.5694,,,,,,,,0.5434,0.1,0.3276,0.0013,0.75,0.25,,,,,,,,,,0.8571,0.0,0.0,0.0,0.0,0.1429,0.0,0.0,,0.2527,,107725,33.641665,-93.596762
153,University of Arkansas Community College Rich Mountain,71953,529.0,5,0.4486,4494.0,0.4255,,,,,,,,0.7637,0.0964,0.0284,0.0227,0.62,0.38,4500.0,6000.0,4020.0,4000.0,6500.0,4256.0,8000.0,5268.0,3950.0,0.85,0.0,0.0,0.0,0.0,0.05,0.1,0.0,,0.1866,,107743,34.591449,-94.219799
154,Paul Mitchell the School-Arkansas,72703,118.0,5,0.4208,,,,,,,,,,0.8051,0.1271,0.0339,0.0339,0.9831,0.0169,9833.0,7692.0,9817.0,5336.0,9833.0,,9736.0,,9753.0,0.8333,0.0,0.0,0.0,0.1667,0.0,0.0,0.0,,0.1271,,107789,36.126373,-94.153892
155,Searcy Beauty College,72143,84.0,5,0.5965,,,,,,,,,,0.8571,0.0357,0.0833,0.0119,0.9881,0.0119,,9199.0,,4750.0,12429.0,,9500.0,,8078.0,1.0,0.0,0.0,0.0,0.0,0.0,0.0,0.0,,0.4881,,107831,35.239148,-91.735135
156,Shorter College,72114,245.0,5,0.8386,4145.0,0.3469,,,,,,,,0.2041,0.0122,0.7673,0.0041,0.6939,0.3061,,,,,29500.0,,,,,0.0,0.0,0.0,0.0,0.0,1.0,0.0,0.0,51.0,0.8367,,107840,34.75933,-92.261331
157,Williams Baptist University,72476,593.0,5,0.5094,5416.0,1.0,1.0,0.0,,,0.5,0.25,0.3524,0.7538,0.0337,0.1046,0.0051,0.5143,0.4857,10000.0,8411.0,11500.0,5500.0,21820.0,9750.0,9500.0,9500.0,10088.0,0.9643,0.0,0.0,0.0,0.0357,0.0,0.0,0.0,75.0,0.0447,,107877,36.125676,-90.940277
158,South Arkansas Community College,71731-7010,889.0,5,0.4105,5156.0,1.0,,,,,,,,0.5096,0.0562,0.3768,0.0022,0.7255,0.2745,6718.0,7705.0,6195.0,5500.0,11153.0,5989.0,8952.0,7250.0,5500.0,0.9048,0.0,0.0,0.0,0.0,0.0952,0.0,0.0,,0.3366,,107974,33.209446,-92.666087
159,Southern Arkansas University Main Campus,71753,2795.0,5,0.4505,7043.0,0.5824,1.0,0.2,0.1667,0.6,0.48,0.2924,0.4481,0.6097,0.0504,0.2114,0.0029,0.5556,0.4444,12013.0,14000.0,11278.0,7808.0,18750.0,12000.0,17818.0,13161.0,12000.0,0.7939,0.0,0.0,0.0,0.0182,0.097,0.0909,0.0,,0.0937,,107983,33.291618,-93.235922
160,Southern Arkansas University Tech,71701-1906,725.0,5,0.5579,4549.0,0.7159,,,,,,,,0.4703,0.0441,0.4221,0.0014,0.5434,0.4566,5000.0,3774.0,5500.0,3450.0,6000.0,4500.0,5667.0,4500.0,4000.0,0.8571,0.0,0.0,0.0,0.0159,0.1111,0.0,0.0,,0.2591,,107992,33.628367,-92.721629
161,Velvatex College of Beauty Culture,72202-5452,15.0,5,0.5714,,,,,,,,,,0.0,0.0,1.0,0.0,1.0,0.0,,,,,,,,,,0.0,0.0,0.0,0.0,0.0,1.0,0.0,0.0,,0.7333,,108065,34.735685,-92.289597
162,University of Arkansas-Fort Smith,72913-3649,4188.0,5,0.4137,7009.0,0.7267,,,0.2759,0.3387,0.2708,0.1714,0.2615,0.6086,0.1538,0.0375,0.0236,0.607,0.393,10250.0,10965.0,11000.0,7484.0,18250.0,10000.0,15750.0,11000.0,9000.0,0.7602,0.0136,0.0045,0.0,0.0498,0.0317,0.0769,0.0407,,0.1814,,108092,35.384184,-94.373729
163,Academy of Art University,94105,5294.0,8,0.4019,9482.0,0.1973,,0.0,0.0,0.5676,0.2597,0.2143,0.4259,0.2055,0.146,0.095,0.0045,0.5657,0.4343,11000.0,10500.0,12000.0,9500.0,31000.0,10981.0,11651.0,11000.0,10751.0,0.6767,0.0075,0.1579,0.0226,0.0451,0.015,0.0752,0.0,,0.4345,,108232,37.787943,-122.400578
164,Academy of Chinese Culture and Health Sciences,94612,,8,,,,,,,,,,,,,,,,,,,,,,,,,,,,,,,,,,,,,108269,37.805972,-122.269839
165,College of Alameda,94501,3629.0,8,0.119,9524.0,0.4713,,,,,,,,0.1769,0.2508,0.183,0.0008,0.5701,0.4299,,,,,,9500.0,9500.0,9500.0,3855.0,0.3784,0.0135,0.027,0.0135,0.1216,0.2027,0.2432,0.0,,0.3963,,108667,37.781017,-122.279303
166,Allan Hancock College,93454-6399,7389.0,8,0.2293,9070.0,0.2983,,,,,,,,0.2137,0.6707,0.0202,0.0035,0.5551,0.4449,6875.0,8519.0,5500.0,7683.0,,6813.0,9500.0,8862.0,5500.0,0.6185,0.0173,0.0405,0.0116,0.2081,0.0231,0.0347,0.0058,,0.2822,,108807,34.943716,-120.421144
167,American Academy of Dramatic Arts-Los Angeles,90028,217.0,8,0.3208,6981.0,0.1628,3.0,,,,,,,0.4101,0.1244,0.0922,0.0092,0.5484,0.4516,12000.0,12000.0,12000.0,5500.0,12000.0,12000.0,20000.0,12000.0,12000.0,0.8571,0.1429,0.0,0.0,0.0,0.0,0.0,0.0,,0.106,,108852,34.095378,-118.343701
168,Berkeley School of Theology,94704-3029,,8,,,,,,,,,,,,,,,,,,,,,,,,,,,,,,,,,,52.0,,,108861,37.865252,-122.256149
169,American Film Institute Conservatory,90027-1625,,8,,9029.0,0.1182,,,,,,,,,,,,,,,,,,,,,,,1.0,0.0,0.0,0.0,0.0,0.0,0.0,0.0,,,,108870,34.10767,-118.310018
170,American Beauty College,91790,185.0,8,0.5048,,,,,,,,,,0.1243,0.7568,0.0162,0.0108,0.7135,0.2865,,4194.0,,3235.0,5430.0,4936.0,4344.0,4550.0,5056.0,0.5,0.0,0.0,0.0,0.5,0.0,0.0,0.0,,0.3514,,108977,34.069367,-117.936959
171,American Career College-Los Angeles,90004,1902.0,8,0.6481,6890.0,,,,,,,,,0.072,0.6146,0.1335,0.0053,0.7913,0.2087,9500.0,9500.0,10122.0,5500.0,9500.0,9500.0,9500.0,9500.0,9127.0,0.2,0.025,0.0,0.0,0.375,0.125,0.275,0.0,,0.5715,,109040,34.079323,-118.292481
172,American Conservatory Theater,94102,1.0,8,,9343.0,1.0,3.0,,,,,,1.0,1.0,0.0,0.0,0.0,0.0,1.0,,,,,,,,,,0.6667,0.0,0.0,0.0,0.0,0.1667,0.1667,0.0,,0.5455,,109086,37.786923,-122.410265
173,American River College,95841-4286,22837.0,8,0.2486,9607.0,0.4049,,,,,,,,0.3952,0.2804,0.0701,0.0057,0.5188,0.4812,9500.0,9443.0,5500.0,9316.0,9625.0,9266.0,9500.0,9431.0,5500.0,0.585,0.0231,0.0432,0.0058,0.1643,0.0576,0.1037,0.0115,,0.4972,,109208,38.65085,-121.349672
174,Antelope Valley Community College District,93536-5426,9670.0,8,0.3682,9114.0,0.2408,,0.5,0.5,0.3243,0.2965,0.1778,0.3568,0.164,0.6126,0.1223,0.0023,0.5821,0.4179,7125.0,9210.0,4500.0,8000.0,12500.0,8022.0,9900.0,9000.0,5500.0,0.5876,0.0565,0.0282,0.0282,0.1186,0.0904,0.0734,0.0169,,0.3347,,109350,34.676207,-118.186166
175,Art Center College of Design,91103,2026.0,8,0.3007,7942.0,0.2669,3.0,,,0.7738,0.6,0.5,0.6923,0.116,0.0908,0.0143,0.0005,0.5834,0.4166,26800.0,28500.0,23288.0,13125.0,31000.0,25572.0,41843.0,26480.0,25000.0,0.6479,0.0352,0.007,0.0,0.1197,0.0282,0.1338,0.0,,0.2007,,109651,34.169031,-118.185102
176,Associated Technical College-Los Angeles,90017-1604,180.0,8,0.72,,,,,,,,,,0.1778,0.4444,0.3056,0.0111,0.7111,0.2889,,,,7125.0,9500.0,9500.0,,9500.0,,0.0,0.0,0.0,0.0,1.0,0.0,0.0,0.0,,0.8167,,109721,34.056102,-118.272364
177,Associated Technical College-San Diego,92108-1630,43.0,8,0.9583,,,,,,,,,,0.3488,0.4651,0.1163,0.0,0.186,0.814,,,,,9500.0,9500.0,,9500.0,,,,,,,,,,,0.7674,,109730,32.773178,-117.135196
178,Azusa Pacific University,91702-7000,3937.0,8,0.3312,8957.0,0.414,5.0,0.5263,0.5,0.7426,0.6884,0.5965,0.7524,0.3023,0.3719,0.0625,0.0033,0.6828,0.3172,21000.0,20500.0,18500.0,12500.0,23219.0,19500.0,24250.0,20000.0,18500.0,0.617,0.0138,0.0688,0.0069,0.0734,0.0734,0.1422,0.0046,88.0,0.2209,,109785,34.130047,-117.888375
179,Bakersfield College,93305-1299,16900.0,8,0.2842,10874.0,0.4769,,0.0,0.0,0.375,0.1805,0.119,0.3086,0.2002,0.654,0.0509,0.003,0.5578,0.4422,8833.0,9500.0,5500.0,9500.0,8312.0,8435.0,10500.0,9500.0,5250.0,0.6088,0.0441,0.0088,0.0,0.2206,0.05,0.0324,0.0088,,0.2949,,109819,35.40911,-118.973753
180,Barstow Community College,92311,2071.0,8,0.4861,9774.0,0.2131,,,,,,,,0.2376,0.465,0.1685,0.0087,0.6953,0.3047,,3347.0,,3194.0,3500.0,2250.0,3201.0,3500.0,3500.0,0.561,0.0,0.122,0.0244,0.2195,0.0488,0.0244,0.0,,0.4857,,109907,34.870285,-117.023412
181,Bellus Academy-Chula Vista,91911,406.0,8,0.665,,,,,,,,,,0.0911,0.5936,0.1502,0.0049,0.8448,0.1552,6333.0,6333.0,10556.0,4603.0,7917.0,10599.0,6333.0,6333.0,5513.0,0.0,0.2,0.2,0.0,0.4667,0.1333,0.0,0.0,,0.5862,,109934,32.614773,-117.083738
182,Bethesda University,92801,264.0,8,0.2702,2482.0,0.125,,,,0.2,0.0,0.5,1.0,0.0568,0.2008,0.1212,0.0114,0.2273,0.7727,,,,5500.0,9000.0,,10125.0,,5500.0,0.0,0.0,0.0,0.0,0.2857,0.1429,0.5714,0.0,99.0,0.3485,,110060,33.842295,-117.941323
183,Biola University,90639-0001,3592.0,8,0.2736,9807.0,1.0,5.0,,,0.7536,0.6011,0.625,0.7532,0.4365,0.206,0.0317,0.0025,0.62,0.38,19500.0,19500.0,18375.0,9848.0,23875.0,19000.0,15000.0,19290.0,19500.0,0.6679,0.0,0.0709,0.0037,0.0485,0.0336,0.1567,0.0075,88.0,0.0793,,110097,33.906203,-118.014374
184,Brownson Technical School,92805,241.0,8,0.771,,,,,,,,,,0.1743,0.639,0.0581,0.0,0.0041,0.9959,9500.0,9500.0,5500.0,4085.0,9500.0,,9500.0,,5500.0,0.5833,0.0,0.0,0.0,0.25,0.0,0.1667,0.0,,0.5851,,110194,33.819032,-117.905774
185,Bryan University,85281,1361.0,6,0.7363,5308.0,0.1058,,,0.0,0.25,0.3125,0.3443,0.363,0.4328,0.0771,0.1969,0.0191,0.7105,0.2895,14250.0,13000.0,14750.0,9500.0,20000.0,10110.0,14235.0,14324.0,12000.0,0.8182,0.0,0.0,0.0,0.0,0.1818,0.0,0.0,,0.8846,,110219,33.437779,-111.944197
186,Butte College,95965-8399,8579.0,8,0.3298,10704.0,0.3274,,,,,,,,0.5051,0.3118,0.0252,0.0108,0.5656,0.4344,6000.0,9289.0,5500.0,7125.0,10500.0,6500.0,9500.0,9318.0,5500.0,0.7946,0.0162,0.027,0.0,0.0973,0.0108,0.0486,0.0054,,0.317,,110246,39.649782,-121.644831
187,California Institute of Integral Studies,94103,84.0,8,0.4898,8677.0,0.2383,,,,,,,,0.5238,0.131,0.1071,0.0,0.8095,0.1905,,18750.0,,15250.0,18750.0,17500.0,,18750.0,,0.7857,0.0,0.0357,0.0,0.0714,0.0714,0.0357,0.0,,0.8929,,110316,37.774924,-122.416102
188,Cabrillo College,95003,8035.0,8,0.1998,8776.0,0.4497,,,,,,,,0.4021,0.4864,0.0107,0.0014,0.5833,0.4167,7500.0,10500.0,5500.0,9000.0,14380.0,9366.0,10500.0,9500.0,5500.0,0.7048,0.0238,0.0429,0.0048,0.1381,0.0048,0.0286,0.0,,0.3795,,110334,36.989448,-121.924797
189,California Baptist University,92504-3297,8234.0,8,0.4417,10151.0,0.4284,3.0,0.5714,0.25,0.6607,0.5184,0.4156,0.6614,0.3515,0.3918,0.0664,0.0055,0.6349,0.3651,21542.0,21500.0,19000.0,11000.0,26063.0,19129.0,25062.0,21250.0,18325.0,0.6313,0.0251,0.0168,0.0056,0.1089,0.0642,0.1453,0.0028,75.0,0.1991,,110361,33.929321,-117.425619
190,California College of the Arts,94107-2247,1239.0,8,0.2324,8739.0,0.2209,3.0,1.0,,0.8182,0.6452,0.4286,0.4792,0.1776,0.1461,0.0404,0.0,0.636,0.364,24620.0,23875.0,14460.0,9500.0,27000.0,22250.0,29250.0,19000.0,19047.0,0.6022,0.043,0.0,0.0,0.1075,0.0753,0.1398,0.0108,,0.1281,,110370,37.767485,-122.399451
191,University of California-Hastings College of Law,94102-4978,,8,,16046.0,0.3591,,,,,,,,,,,,,,,,,,,,,,,0.7639,0.0139,0.0556,0.0,0.0417,0.0417,0.0694,0.0139,,,,110398,37.781137,-122.4157
192,California Institute of Technology,91125,987.0,8,0.1154,20924.0,0.941,1.0,,,0.964,0.8889,1.0,0.9306,0.227,0.2229,0.0253,0.001,0.4468,0.5532,,,,,,,,,,0.4663,0.0073,0.0042,0.0,0.0343,0.0125,0.0966,0.0,,0.002,,110404,34.137349,-118.125878
193,California Lutheran University,91360-2787,2588.0,8,0.3249,10375.0,1.0,5.0,,1.0,0.75,0.7351,0.6875,0.7491,0.3949,0.3918,0.039,0.0023,0.5328,0.4672,20148.0,18750.0,17500.0,10438.0,21669.0,17754.0,21900.0,19500.0,17750.0,0.6667,0.0234,0.0058,0.0,0.1228,0.0585,0.117,0.0,39.0,0.0822,,110413,34.224566,-118.878924
194,California Polytechnic State University-San Luis Obispo,93407,21090.0,8,0.1628,10582.0,0.6798,3.0,1.0,0.8571,0.8364,0.8128,0.7,0.8763,0.5302,0.1944,0.0069,0.0012,0.4872,0.5128,15911.0,15000.0,15450.0,9166.0,18500.0,15235.0,16500.0,15500.0,15334.0,0.7294,0.0105,0.0511,0.0012,0.0441,0.0221,0.0952,0.0046,,0.029,,110422,35.299513,-120.657311
195,Alliant International University-San Diego,92131,227.0,8,0.0464,10251.0,0.8582,3.0,,,,0.0,0.0,0.0,0.2203,0.2731,0.0396,0.0,0.674,0.326,12500.0,12500.0,12500.0,11000.0,12878.0,12500.0,12500.0,12500.0,13000.0,0.6609,0.0174,0.0087,0.0087,0.0783,0.0783,0.1391,0.0087,,0.5053,,110468,32.897056,-117.094398
196,California State University-Bakersfield,93311-1099,8870.0,8,0.6105,9468.0,0.509,3.0,0.3333,0.5,0.5699,0.4771,0.3981,0.4898,0.1393,0.6362,0.0416,0.003,0.6565,0.3435,11000.0,11000.0,13000.0,10843.0,16600.0,11515.0,12500.0,11198.0,10193.0,0.5147,0.0176,0.0265,0.0029,0.1647,0.0471,0.1529,0.0029,,0.2296,,110486,35.350005,-119.104711
197,California State University-Stanislaus,95382-0299,9161.0,8,0.5706,9639.0,0.5114,3.0,0.4444,0.5,0.625,0.5484,0.5294,0.6371,0.1859,0.5884,0.0205,0.0019,0.6707,0.3293,10986.0,11000.0,13080.0,9000.0,13540.0,11074.0,12537.0,12000.0,11000.0,0.5877,0.0084,0.0585,0.0028,0.1142,0.0501,0.156,0.0084,,0.2332,,110495,37.52577,-120.852511
198,California State University-San Bernardino,92407-2393,16595.0,8,0.603,9973.0,0.4662,3.0,0.4,0.4286,0.5932,0.5688,0.4462,0.6271,0.1083,0.6897,0.0478,0.0014,0.6255,0.3745,11000.0,12500.0,14253.0,9000.0,14715.0,12500.0,13699.0,12000.0,11000.0,0.5297,0.0123,0.0634,0.0,0.1288,0.0593,0.1861,0.0061,,0.2236,,110510,34.182622,-117.323801
199,California State Polytechnic University-Pomona,91768,26802.0,8,0.485,10556.0,0.4535,3.0,0.4,1.0,0.8232,0.6261,0.625,0.7627,0.1411,0.5032,0.0293,0.0011,0.4638,0.5362,12829.0,12500.0,15000.0,8669.0,16000.0,14000.0,15700.0,13000.0,13000.0,0.5128,0.0045,0.0603,0.0015,0.1041,0.0302,0.2247,0.0045,,0.1876,,110529,34.057912,-117.821476
200,California State University-Chico,95929-0150,14343.0,8,0.4324,9593.0,0.5639,3.0,1.0,0.2222,0.6129,0.619,0.4302,0.7228,0.4293,0.3655,0.0277,0.0043,0.5451,0.4549,14000.0,13500.0,15000.0,9000.0,16552.0,14740.0,13750.0,14267.0,15000.0,0.719,0.0213,0.0775,0.0,0.0368,0.0252,0.093,0.0039,,0.1459,,110538,39.729712,-121.844859
201,California State University-Dominguez Hills,90747-0005,15214.0,8,0.6283,9821.0,0.4384,3.0,0.0,,0.5977,0.5352,0.3909,0.6296,0.0515,0.6744,0.1097,0.0013,0.6309,0.3691,11000.0,12000.0,12524.0,8458.0,13807.0,11649.0,13000.0,12000.0,8872.0,0.4548,0.031,0.0619,0.0,0.1571,0.0952,0.1524,0.0071,,0.3266,,110547,33.864766,-118.255917
202,California State University-Fresno,93740,21826.0,8,0.5726,9546.0,0.5404,3.0,0.75,0.4,0.5438,0.5588,0.381,0.6788,0.167,0.5794,0.029,0.0032,0.602,0.398,11000.0,11750.0,14661.0,8250.0,14505.0,12382.0,13755.0,12462.0,11250.0,0.549,0.0151,0.0415,0.0013,0.1382,0.0327,0.1646,0.0075,,0.151,,110556,36.811154,-119.744569
203,California State University-Fullerton,92831-3599,35502.0,8,0.4704,10353.0,0.4985,3.0,0.2857,0.7143,0.7994,0.672,0.7143,0.7217,0.1633,0.4895,0.0197,0.0007,0.5884,0.4116,11000.0,10957.0,14500.0,8250.0,13750.0,12000.0,12500.0,11913.0,11250.0,0.567,0.0068,0.0244,0.001,0.1095,0.044,0.216,0.0029,,0.1869,,110565,33.881506,-117.885446
204,California State University-East Bay,94542,12047.0,8,0.4527,10355.0,0.4484,3.0,0.4375,0.4,0.6041,0.4367,0.405,0.5986,0.1489,0.3834,0.0929,0.0012,0.6015,0.3985,13000.0,12500.0,13000.0,11000.0,16544.0,12500.0,13005.0,12769.0,12500.0,0.5297,0.0103,0.0879,0.0078,0.0724,0.0568,0.1938,0.0,,0.3752,,110574,37.657694,-122.054135
205,California State University-Long Beach,90840-0115,33765.0,8,0.5058,10297.0,0.4597,3.0,0.3846,0.8571,0.8019,0.7368,0.6467,0.7878,0.1591,0.4683,0.0368,0.0009,0.5773,0.4227,11000.0,12000.0,13646.0,8250.0,14289.0,12500.0,13313.0,12000.0,11500.0,0.5602,0.0157,0.0398,0.0,0.1074,0.0481,0.1963,0.0065,,0.179,,110583,33.782818,-118.11204
206,California State University-Los Angeles,90032-8506,23506.0,8,0.6616,10102.0,0.4353,3.0,1.0,0.25,0.6463,0.4962,0.4851,0.604,0.0439,0.7199,0.0373,0.0011,0.5938,0.4062,11157.0,11500.0,13368.0,8100.0,13000.0,11578.0,13515.0,12109.0,10068.0,0.4124,0.0144,0.0402,0.0014,0.1839,0.0661,0.2428,0.0043,,0.2377,,110592,34.066927,-118.168965
207,California State University-Northridge,91330,34436.0,8,0.5666,10127.0,0.4428,3.0,0.3333,0.4,0.6618,0.5017,0.4095,0.6962,0.2018,0.5385,0.0468,0.0008,0.5495,0.4505,11000.0,11333.0,13717.0,8235.0,13872.0,12000.0,12500.0,11708.0,10947.0,0.5574,0.017,0.0415,0.0,0.1202,0.0532,0.1702,0.0064,,0.2213,,110608,34.240126,-118.529319
208,California State University-Sacramento,95819-2694,29370.0,8,0.5015,9713.0,0.4602,3.0,0.5385,0.3333,0.6,0.5679,0.4808,0.6116,0.238,0.3642,0.0636,0.0023,0.5719,0.4281,11250.0,12500.0,13000.0,8250.0,15000.0,12500.0,15000.0,12500.0,11000.0,0.5913,0.0097,0.1064,0.0012,0.0726,0.0484,0.127,0.0121,,0.2209,,110617,38.559415,-121.423549
209,University of California-Berkeley,94720,31811.0,8,0.272,18770.0,0.6688,3.0,0.75,0.7692,0.9575,0.854,0.8144,0.9312,0.2072,0.198,0.0213,0.0011,0.546,0.454,11000.0,11000.0,13000.0,8250.0,13000.0,12500.0,12500.0,11000.0,11807.0,0.4811,0.0159,0.0483,0.0003,0.0546,0.0261,0.1257,0.0015,,0.0538,,110635,37.871918,-122.260463
210,University of California-Davis,95616-8678,31637.0,8,0.3429,15968.0,0.8616,3.0,0.9565,1.0,0.914,0.8241,0.8246,0.882,0.2136,0.2365,0.0194,0.0007,0.6017,0.3983,11000.0,11000.0,12204.0,7500.0,13000.0,11000.0,11000.0,11000.0,11000.0,0.5058,0.014,0.0469,0.0007,0.0693,0.0194,0.1702,0.0022,,0.043,,110644,38.539667,-121.749567
211,University of California-Irvine,92697,29438.0,8,0.3837,16688.0,0.798,3.0,0.75,0.75,0.8992,0.7658,0.789,0.8249,0.133,0.2582,0.021,0.0009,0.546,0.454,13300.0,13000.0,15000.0,9816.0,15000.0,14337.0,14334.0,13479.0,13727.0,0.4737,0.0141,0.0275,0.001,0.0696,0.0271,0.2243,0.0017,,0.0363,,110653,33.648434,-117.841248
212,University of California-Los Angeles,90095-1405,32122.0,8,0.2842,19498.0,0.7182,3.0,0.7727,0.8889,0.9501,0.8881,0.7979,0.9321,0.2623,0.2169,0.032,0.0016,0.5977,0.4023,12538.0,11723.0,14339.0,8804.0,14000.0,13000.0,11253.0,12560.0,13000.0,0.4499,0.0127,0.0467,0.0009,0.067,0.03,0.2237,0.0022,,0.0369,,110662,34.07178,-118.442179
213,University of California-Riverside,92521,22817.0,8,0.4999,14807.0,0.8512,3.0,0.6667,0.4,0.8019,0.7483,0.6949,0.7205,0.1122,0.4069,0.0331,0.001,0.5299,0.4701,14750.0,13757.0,15449.0,8102.0,17500.0,15000.0,15464.0,14664.0,14771.0,0.4246,0.0146,0.0425,0.0,0.0798,0.0307,0.2057,0.0066,,0.0653,,110671,33.97246,-117.32741
214,University of California-San Diego,92093,33339.0,8,0.3338,16913.0,0.8544,3.0,0.7273,1.0,0.9347,0.8193,0.8246,0.8876,0.1897,0.2196,0.0163,0.0009,0.5129,0.4871,14800.0,14552.0,14792.0,10924.0,15500.0,14800.0,14800.0,14400.0,14750.0,0.4979,0.0093,0.0139,0.0005,0.0629,0.0164,0.1706,0.0014,,0.0466,,110680,32.877749,-117.235866
215,University of California-San Francisco,94143-0244,,8,,13591.0,0.6283,,,,,,,,,,,,,,,,,,,,,,,0.4264,0.02,0.0149,0.0002,0.0585,0.0312,0.2413,0.0018,,,,110699,37.763737,-122.458489
216,University of California-Santa Barbara,93106,23081.0,8,0.32,17654.0,0.8759,3.0,0.8333,0.6667,0.8933,0.8136,0.7642,0.8787,0.3186,0.2541,0.0177,0.001,0.5617,0.4383,11668.0,11167.0,12000.0,7500.0,13993.0,11974.0,12500.0,11832.0,11700.0,0.5353,0.013,0.0486,0.0,0.0603,0.0188,0.0901,0.0045,,0.025,,110705,34.416297,-119.846426
217,University of California-Santa Cruz,95064-1011,17864.0,8,0.3178,15513.0,0.7383,3.0,0.7273,1.0,0.8485,0.7385,0.5902,0.7755,0.3145,0.2786,0.0194,0.001,0.4783,0.5217,14876.0,14710.0,13080.0,9166.0,16666.0,14362.0,16500.0,14322.0,14000.0,0.5328,0.0235,0.0392,0.0,0.1019,0.0215,0.1175,0.0088,,0.0498,,110714,36.995584,-122.058801
218,Sofia University,94303,8.0,8,0.3,2627.0,0.3929,,,,,,,,0.5,0.0,0.0,0.0,0.75,0.25,,,,,,,,,,0.8182,0.0,0.0909,0.0,0.0,0.0,0.0909,0.0,,0.75,,110778,37.430325,-122.10866
219,California Beauty School,95354,63.0,8,0.4889,,,,,,,,,,0.254,0.5238,0.0,0.0476,1.0,0.0,,4551.0,,,,,6000.0,,3666.0,0.5,0.0,0.0,0.0,0.25,0.25,0.0,0.0,,0.3016,,110875,37.645217,-120.99689
220,California Christian College,93727,14.0,8,0.5714,,,2.0,,,,,0.0,,0.2857,0.2857,0.1429,0.0,0.2857,0.7143,,,,,,,,,,,,,,,,,,41.0,0.7143,,110918,36.749366,-119.711123
221,Haven University,92840-1340,22.0,8,0.3,1317.0,,,,,,,,,0.0,0.0455,0.1818,0.0,0.5909,0.4091,,,,,,,,,,0.5,0.0,0.0,0.0,0.0,0.0,0.5,0.0,108.0,0.8571,,111045,33.777392,-117.939412
222,California Hair Design Academy,91942-5055,94.0,8,0.4496,,,,,,,,,,0.2872,0.4149,0.0957,0.0,0.7766,0.2234,,5263.0,,,6333.0,,6000.0,,6655.0,0.4,0.0,0.0,0.0,0.4,0.0,0.2,0.0,,0.5319,,111054,32.765221,-117.024261
223,California Institute of the Arts,91355-2397,959.0,8,0.227,9555.0,0.6492,3.0,,0.5,0.7333,0.8095,0.75,0.7294,0.3754,0.1376,0.0386,0.0042,0.5829,0.4171,17313.0,20000.0,14000.0,12000.0,25000.0,18000.0,25000.0,15156.0,15250.0,0.7368,0.0,0.0,0.0,0.0592,0.0395,0.1118,0.0197,,0.1016,,111081,34.39327,-118.566837
224,California State University Maritime Academy,94590-8181,880.0,8,0.2734,10310.0,0.7614,3.0,,,0.68,0.6,0.5,0.7193,0.4614,0.2216,0.0284,0.0057,0.1932,0.8068,15459.0,16356.0,17534.0,10000.0,24965.0,17489.0,22242.0,15000.0,16500.0,0.806,0.0,0.0299,0.0,0.0448,0.0299,0.0896,0.0,,0.1,,111188,38.069061,-122.231551
225,California Western School of Law,92101-3046,,8,,11568.0,0.4022,,,,,,,,,,,,,,,,,,,,,,,0.7647,0.0,0.0,0.0,0.1176,0.0294,0.0882,0.0,,,,111391,32.722192,-117.162416
226,Canada College,94061-1099,3859.0,8,0.0849,11660.0,0.4307,,,,,,,,0.2433,0.4006,0.0215,0.001,0.6154,0.3846,,,,7500.0,,,,,,0.4943,0.0,0.0575,0.0,0.2184,0.0575,0.1609,0.0,,0.3796,,111434,37.44877,-122.265398
227,College of the Canyons,91355-1899,13371.0,8,0.1407,11688.0,0.2708,,,,,,,,0.2728,0.5188,0.0495,0.0015,0.5122,0.4878,6750.0,7762.0,4875.0,5500.0,9612.0,5500.0,9500.0,7500.0,4729.0,0.6774,0.0081,0.0403,0.0,0.1411,0.0403,0.0847,0.0081,,0.3236,,111461,34.403993,-118.568698
228,Career Academy of Beauty,92845,194.0,8,0.4459,,,,,,,,,,0.3196,0.4639,0.0309,0.0258,0.9742,0.0258,6030.0,6333.0,3667.0,2937.0,6333.0,,6333.0,,3666.0,0.1667,0.0,0.0,0.0,0.3333,0.1667,0.3333,0.0,,0.4278,,111513,33.781018,-118.031697
229,Casa Loma College-Los Angeles,91403,246.0,8,0.437,7748.0,0.2143,3.0,,,1.0,0.5556,1.0,0.5714,0.2724,0.5325,0.0203,0.0122,0.6098,0.3902,18495.0,20752.0,19500.0,8658.0,26791.0,25003.0,23000.0,18500.0,14028.0,0.5,0.1667,0.0,0.0,0.0,0.0,0.3333,0.0,,0.7114,,111638,34.192829,-118.457781
230,CET-San Diego,92102,198.0,8,0.2368,,,,,,,,,,0.1566,0.4192,0.0758,0.0051,0.202,0.798,6650.0,6777.0,5500.0,4750.0,7041.0,6909.0,7582.0,6650.0,5500.0,0.25,0.0,0.0,0.0,0.625,0.0,0.125,0.0,,0.7172,,111708,32.711302,-117.105328
231,CET-San Jose,95110,176.0,8,0.3367,,,,,,,,,,0.0568,0.75,0.0511,0.0,0.2386,0.7614,6650.0,6777.0,5500.0,4750.0,7041.0,6909.0,7582.0,6650.0,5500.0,0.3636,0.0909,0.0,0.0,0.4545,0.0909,0.0,0.0,,0.4432,,111717,37.322723,-121.88698
232,CET-El Centro,92243,159.0,8,0.2327,,,,,,,,,,0.0063,0.9811,0.0,0.0,0.2579,0.7421,6650.0,6777.0,5500.0,4750.0,7041.0,6909.0,7582.0,6650.0,5500.0,0.1,0.0,0.0,0.0,0.9,0.0,0.0,0.0,,0.5849,,111726,32.790908,-115.549079
233,CET-Colton,92324,135.0,8,0.4698,,,,,,,,,,0.1333,0.7111,0.1037,0.0074,0.1481,0.8519,6650.0,6777.0,5500.0,4750.0,7041.0,6909.0,7582.0,6650.0,5500.0,0.2,0.0,0.0,0.0,0.7,0.0,0.1,0.0,,0.4889,,111744,34.077381,-117.353488
234,CET-Watsonville,95076,90.0,8,0.2434,,,,,,,,,,0.0222,0.9444,0.0333,0.0,0.4667,0.5333,6650.0,6777.0,5500.0,4750.0,7041.0,6909.0,7582.0,6650.0,5500.0,0.2,0.0,0.0,0.0,0.6,0.2,0.0,0.0,,0.2333,,111762,36.931833,-121.767991
235,CET-Salinas,93906,156.0,8,0.265,,,,,,,,,,0.0,1.0,0.0,0.0,0.859,0.141,6650.0,6777.0,5500.0,4750.0,7041.0,6909.0,7582.0,6650.0,5500.0,0.0,0.0,0.0,0.0,1.0,0.0,0.0,0.0,,0.1859,,111799,36.707333,-121.65236
236,Cerritos College,90650-6298,17437.0,8,0.365,11073.0,0.3679,,,,,,,,0.0931,0.7012,0.0635,0.0031,0.5327,0.4673,7899.0,9155.0,5500.0,8345.0,8447.0,8000.0,9500.0,9000.0,5500.0,0.4832,0.0101,0.0034,0.0,0.3255,0.0638,0.1074,0.0067,,0.4101,,111887,33.886874,-118.097337
237,Cerro Coso Community College,93555-9571,3706.0,8,0.1342,11032.0,0.4132,,,,,,,,0.3718,0.412,0.0831,0.0232,0.5051,0.4949,,5140.0,,,,5500.0,6080.0,5853.0,4750.0,0.6232,0.0145,0.1449,0.0,0.0725,0.058,0.0435,0.0145,,0.5271,,111896,35.567525,-117.66767
238,Chabot College,94545,10067.0,8,0.1659,11197.0,0.3439,,,,,,,,0.1485,0.4155,0.0895,0.0016,0.5263,0.4737,5750.0,9500.0,6500.0,8946.0,9500.0,7439.0,9500.0,9084.0,5500.0,0.5405,0.0216,0.0486,0.0,0.1568,0.0649,0.1351,0.0,,0.4063,,111920,37.642458,-122.105636
239,Chaffey College,91737-3002,15267.0,8,0.2807,10244.0,0.2329,,,,,,,,0.1512,0.6439,0.073,0.0017,0.6182,0.3818,,,,,,,,,,0.6008,0.0121,0.0161,0.0,0.1976,0.0565,0.1089,0.004,,0.36,,111939,34.147663,-117.573932
240,Chapman University,92866,7469.0,8,0.1898,12582.0,0.9965,5.0,1.0,0.8,0.8613,0.7371,0.7727,0.8037,0.5022,0.1762,0.0216,0.0013,0.6037,0.3963,18750.0,19000.0,16851.0,9500.0,20500.0,17500.0,23000.0,18000.0,17589.0,0.6228,0.0214,0.1317,0.0018,0.048,0.0267,0.1068,0.0,61.0,0.0254,,111948,33.79302,-117.852518
241,Charles R Drew University of Medicine and Science,90059,255.0,8,0.5256,9170.0,0.2663,5.0,,,,,,,0.0471,0.3569,0.4275,0.0078,0.6588,0.3412,15010.0,16902.0,11250.0,10875.0,18750.0,15516.0,18750.0,14250.0,7500.0,0.1802,0.027,0.1081,0.0,0.1802,0.2793,0.2252,0.0,,0.5569,,111966,33.925658,-118.242791
242,Concordia University-Irvine,92612-3203,1580.0,8,0.257,7385.0,1.0,5.0,,1.0,0.625,0.6104,0.619,0.7447,0.4595,0.2639,0.0481,0.0019,0.6025,0.3975,20000.0,18750.0,18667.0,8750.0,24247.0,17915.0,20156.0,19399.0,18667.0,0.802,0.0,0.0594,0.0,0.0297,0.0396,0.0594,0.0099,68.0,0.1218,,112075,33.653665,-117.812305
243,San Diego Christian College,91977,438.0,8,0.3561,6874.0,0.1183,5.0,0.0,1.0,1.0,0.5,0.2857,0.4857,0.3744,0.3082,0.0959,0.0114,0.5502,0.4498,12500.0,15750.0,12000.0,12500.0,24941.0,12500.0,16750.0,14000.0,12000.0,0.8182,0.0,0.0,0.0,0.0909,0.0,0.0909,0.0,88.0,0.1581,,112084,32.842404,-116.978112
244,Church Divinity School of the Pacific,94709-1211,,8,,9167.0,0.5,,,,,,,,,,,,,,,,,,,,,,,0.5714,0.0,0.0,0.0,0.1429,0.0,0.2857,0.0,73.0,,,112127,37.876184,-122.261122
245,Citrus College,91741-1899,8260.0,8,0.2575,8894.0,0.3575,,,,,,,,0.1504,0.6603,0.0332,0.0025,0.5688,0.4312,5500.0,7750.0,5000.0,5500.0,7851.0,6500.0,9500.0,5500.0,5500.0,0.5542,0.0,0.0,0.0301,0.2349,0.0422,0.1205,0.0181,,0.3038,,112172,34.13537,-117.886469
246,Citrus Heights Beauty College,95610-1410,101.0,8,0.366,,,,,,,,,,0.6535,0.1683,0.0594,0.0198,0.9802,0.0198,3673.0,4889.0,5917.0,4750.0,6333.0,,6333.0,,3673.0,0.625,0.0,0.0,0.0,0.375,0.0,0.0,0.0,,0.3267,,112181,38.712951,-121.289529
247,City College of San Francisco,94112-1898,16219.0,8,0.1367,10179.0,0.5101,,,,,,,,0.208,0.271,0.0745,0.0024,0.5417,0.4583,5500.0,8399.0,5250.0,7458.0,8218.0,8973.0,9500.0,6688.0,4750.0,0.5207,0.0197,0.0237,0.0039,0.1282,0.0552,0.2091,0.002,,0.5865,,112190,37.725953,-122.451155
248,Claremont Graduate University,91711-6160,,8,,13628.0,0.8387,,,,,,,,,,,,,,,,,,,,,,,0.6421,0.0105,0.0632,0.0,0.0737,0.0632,0.1474,0.0,,,,112251,34.103585,-117.713703
249,Claremont McKenna College,91711-6400,1414.0,8,0.1973,14789.0,0.9326,5.0,,,0.9444,0.9623,0.8462,0.9237,0.3685,0.1563,0.0516,0.0007,0.5078,0.4922,11500.0,13500.0,11948.0,6500.0,13500.0,11500.0,,12000.0,,0.6889,0.0222,0.0278,0.0,0.0667,0.0389,0.1222,0.0,,0.0021,,112260,34.102154,-117.711188
250,Milan Institute-Visalia,93277,430.0,8,0.5546,,,,,,,,,,0.1372,0.793,0.0163,0.0163,0.9419,0.0581,5500.0,7690.0,5265.0,4750.0,8124.0,7690.0,7972.0,6736.0,5500.0,0.4815,0.037,0.1852,0.0,0.2222,0.0,0.037,0.037,,0.4023,,112288,36.27164,-119.312151
251,Clovis Adult Education,93611,340.0,8,0.0569,,,,,,,,,,0.1441,0.5029,0.0706,0.0088,0.8882,0.1118,,,,,,,,,,0.4545,0.0,0.0,0.0,0.2727,0.0,0.2727,0.0,,0.7353,,112367,36.834459,-119.690369
252,Coastline Community College,92708-2597,5719.0,8,0.107,11482.0,0.1756,,,,,,,,0.291,0.3072,0.0754,0.0061,0.485,0.515,,8134.0,,7648.0,8250.0,7750.0,8316.0,7666.0,4500.0,0.6939,0.0204,0.0204,0.0,0.1224,0.0204,0.102,0.0,,0.5894,,112385,33.715634,-117.929143
253,University of Silicon Valley,95134,420.0,8,0.4611,7739.0,0.3604,2.0,0.0,0.6667,0.7222,0.4737,0.3333,0.5,0.2786,0.2333,0.0881,0.0024,0.2619,0.7381,17522.0,15750.0,20751.0,9500.0,31000.0,16047.0,18852.0,23000.0,17863.0,0.5455,0.0,0.0,0.0909,0.0,0.0,0.3636,0.0,,0.2471,,112394,37.414049,-121.94087
254,Coba Academy,92801,132.0,8,0.6726,,,,,,,,,,0.1136,0.6742,0.1061,0.0,0.8106,0.1894,,6333.0,,6311.0,6333.0,9680.0,6333.0,6333.0,5226.0,0.25,0.0,0.0,0.0,0.75,0.0,0.0,0.0,,0.5,,112455,33.841141,-117.943108
255,Western University of Health Sciences,91766-1854,,8,,11470.0,0.8567,,,,,,,,,,,,,,,,,,,,,,,0.4187,0.0482,0.0994,0.0,0.0452,0.0211,0.256,0.0,,,,112525,34.058092,-117.747732
256,Columbia College,95370,1509.0,8,0.2233,10376.0,0.4576,,,,,,,,0.6753,0.224,0.0371,0.0152,0.5474,0.4526,,,,,,,,,,0.7778,0.0556,0.0185,0.0,0.1111,0.0185,0.0185,0.0,,0.3408,,112561,38.030367,-120.388385
257,Columbia College Hollywood,91356-1411,493.0,8,0.5289,6369.0,0.0721,,0.0,,0.4444,0.6316,0.2895,0.5323,0.4037,0.1197,0.1846,0.0142,0.432,0.568,13279.0,12000.0,15907.0,6334.0,25000.0,12667.0,12667.0,14167.0,13500.0,0.875,0.0,0.0,0.0,0.0,0.125,0.0,0.0,,0.1826,,112570,34.17972,-118.538793
258,Compton College,90221-5393,2635.0,8,0.2923,9370.0,0.4764,,,,,,,,0.0209,0.5917,0.2896,0.0027,0.6774,0.3226,,,,,,4750.0,,6754.0,,0.3265,0.0102,0.0204,0.0102,0.2041,0.3571,0.0714,0.0,,0.3636,,112686,33.878226,-118.209463
259,Contra Costa College,94806,4429.0,8,0.1426,9805.0,0.3923,,,,,,,,0.1124,0.4547,0.1495,0.0014,0.6085,0.3915,,4750.0,,4750.0,,4750.0,5250.0,5250.0,4000.0,0.4216,0.0392,0.049,0.0098,0.1765,0.1765,0.1176,0.0,,0.3552,,112826,37.969381,-122.337377
260,Cosumnes River College,95823-5799,12575.0,8,0.2532,9447.0,0.4318,,,,,,,,0.2367,0.2799,0.0845,0.0036,0.5812,0.4188,7514.0,9276.0,5500.0,8483.0,10722.0,8003.0,9500.0,9074.0,5500.0,0.513,0.0415,0.0363,0.0,0.1451,0.0881,0.1503,0.0155,,0.3585,,113096,38.45295,-121.423108
261,Crafton Hills College,92339-1799,4481.0,8,0.1467,10208.0,0.1864,,,,,,,,0.3256,0.5106,0.0326,0.0025,0.5543,0.4457,,,,,,,,,,0.631,0.0,0.0119,0.0,0.1905,0.0595,0.1071,0.0,,0.3281,,113111,34.039178,-117.101173
262,Cuesta College,93403-8106,6961.0,8,0.1852,10451.0,0.335,,,,,,,,0.5172,0.3281,0.0322,0.004,0.5376,0.4624,9500.0,10250.0,6500.0,9500.0,13750.0,9500.0,10500.0,9500.0,5500.0,0.7826,0.0072,0.0362,0.0,0.1159,0.0,0.0217,0.0145,,0.2756,,113193,35.331276,-120.742235
263,Cuyamaca College,92019,6473.0,8,0.2378,7247.0,0.3098,,,,,,,,0.4391,0.3271,0.0365,0.0043,0.5735,0.4265,,5250.0,,5250.0,,4500.0,7000.0,5967.0,3657.0,0.6739,0.0,0.0217,0.0,0.163,0.0435,0.0543,0.0217,,0.3833,,113218,32.744954,-116.943507
264,Cypress College,90630-5897,12090.0,8,0.2928,10440.0,0.3575,,0.5,0.5,0.5068,0.2316,0.2188,0.3333,0.1311,0.5144,0.0363,0.0016,0.5888,0.4112,8500.0,8220.0,4500.0,7000.0,10000.0,5500.0,9500.0,9000.0,4250.0,0.4626,0.0441,0.0793,0.0,0.2026,0.0573,0.1322,0.0,,0.3074,,113236,33.82833,-118.025143
265,De Anza College,95014,14706.0,8,0.1629,9611.0,0.3781,,,,,,,,0.1664,0.2856,0.0271,0.0015,0.506,0.494,6707.0,7000.0,5500.0,6500.0,5625.0,6500.0,8709.0,6334.0,5500.0,0.4628,0.0289,0.0289,0.0,0.1736,0.0661,0.2273,0.0041,,0.3012,,113333,37.319914,-122.045783
266,International School of Beauty Inc,92260-2740,159.0,8,0.4692,,,,,,,,,,0.2453,0.6855,0.0314,0.0,0.7358,0.2642,,5500.0,,4056.0,7083.0,6828.0,7196.0,6240.0,5500.0,0.5,0.0,0.0,0.0,0.4,0.1,0.0,0.0,,0.3962,,113449,33.729555,-116.403928
267,Dell'Arte International School of Physical Theatre,95525-0816,13.0,8,,,,,,,,,,,0.6923,0.0,0.0,0.0,0.7692,0.2308,,,,,,,,,,0.5,0.5,0.0,0.0,0.0,0.0,0.0,0.0,,0.7692,,113537,40.880924,-123.988808
268,College of the Desert,92260,8634.0,8,0.3207,11034.0,0.2676,,,,,,,,0.1542,0.7402,0.024,0.003,0.5968,0.4032,,,,4625.0,,,6880.0,,2700.0,0.5645,0.0323,0.0161,0.0,0.25,0.0484,0.0323,0.0081,,0.3241,,113573,33.732108,-116.388271
269,Design Institute of San Diego,92121,119.0,8,0.4113,6611.0,0.3191,3.0,,,,0.5,,0.5,0.4622,0.2437,0.1092,0.0336,0.8908,0.1092,,29425.0,,13215.0,36844.0,,27302.0,,20500.0,1.0,0.0,0.0,0.0,0.0,0.0,0.0,0.0,,0.5882,,113582,32.880926,-117.167374
270,Diablo Valley College,94523,15326.0,8,0.1391,9993.0,0.3921,,,,,,,,0.3198,0.2783,0.0559,0.0022,0.5204,0.4796,6000.0,6434.0,5500.0,5500.0,10021.0,5858.0,7250.0,6332.0,5450.0,0.5679,0.0174,0.0801,0.0035,0.1254,0.0697,0.1289,0.007,,0.3364,,113634,37.968516,-122.073142
271,Dominican University of California,94901-2298,1243.0,8,0.33,9008.0,0.2769,5.0,0.75,0.6667,0.8955,0.6818,0.7222,0.7263,0.2454,0.2719,0.0386,0.0217,0.6879,0.3121,21769.0,23375.0,25624.0,11613.0,27000.0,18417.0,25000.0,25000.0,24250.0,0.6505,0.0194,0.1262,0.0,0.0485,0.0583,0.0777,0.0,,0.1121,,113698,37.981279,-122.512051
272,Dominican School of Philosophy & Theology,94708-1816,,8,,3217.0,0.6316,,,,,,,,,,,,,,,,,,,,,,,0.9091,0.0,0.0,0.0,0.0909,0.0,0.0,0.0,30.0,,,113704,37.881099,-122.264612
273,East Los Angeles College,91754-6099,25649.0,8,0.1983,10715.0,0.3454,,,,,,,,0.0941,0.6311,0.0665,0.0019,0.5186,0.4814,,7490.0,,6750.0,10500.0,6500.0,9500.0,7480.0,5024.0,0.2516,0.0096,0.2166,0.0,0.2866,0.0478,0.1752,0.0,,0.5229,,113856,34.040531,-118.148785
274,El Camino Community College District,90506,16764.0,8,0.2975,9974.0,0.3531,,,,,,,,0.1198,0.4785,0.1294,0.0017,0.5437,0.4563,,4750.0,,,,4750.0,5000.0,4875.0,4298.0,0.5421,0.0,0.0093,0.0031,0.2087,0.0717,0.1558,0.0062,,0.2909,,113980,33.885229,-118.329913
275,Emperor's College of Traditional Oriental Medicine,90403,,8,,7812.0,,,,,,,,,,,,,,,,,,,,,,,,0.0,1.0,0.0,0.0,0.0,0.0,0.0,0.0,,,,114114,34.030438,-118.485119
276,Empire College,95403-2126,,8,0.3916,,,,,1.0,0.0,0.625,0.0,0.6129,,,,,,,,14200.0,,9315.0,13000.0,12000.0,14100.0,12000.0,11809.0,,,,,,,,,,,,114123,38.468052,-122.729337
277,Evergreen Valley College,95135-1598,6746.0,8,0.2583,14192.0,0.3801,,,,,,,,0.0749,0.4472,0.0234,0.0022,0.5599,0.4401,,9250.0,,6750.0,13219.0,6479.0,9625.0,9500.0,5500.0,0.2923,0.0154,0.0462,0.0,0.2462,0.0846,0.3,0.0077,,0.3221,,114266,37.30167,-121.76561
278,FIDM-Fashion Institute of Design & Merchandising,90015-1421,1724.0,8,0.2971,6100.0,0.0417,2.0,0.8333,0.8,0.7015,0.7655,0.6471,0.7321,0.3271,0.25,0.087,0.0122,0.8248,0.1752,12000.0,12500.0,12000.0,6333.0,13734.0,10500.0,14584.0,12000.0,12000.0,0.6667,0.0,0.0,0.0,0.1111,0.2222,0.0,0.0,,0.1508,,114354,34.044209,-118.25993
279,Feather River Community College District,95971-9124,1220.0,8,0.1046,9476.0,0.2414,,0.3333,0.4,0.8,0.5172,0.1724,0.3263,0.3664,0.3328,0.0934,0.0279,0.4836,0.5164,6000.0,8750.0,6360.0,5776.0,10750.0,5500.0,9500.0,9500.0,5500.0,0.8276,0.0,0.0,0.0345,0.069,0.0345,0.0,0.0,,0.5295,,114433,39.953101,-120.973067
280,Federico Beauty Institute,95834,297.0,8,0.4782,,,,,,,,,,0.3266,0.3502,0.1111,0.0202,0.862,0.138,6333.0,5735.0,3667.0,2839.0,6333.0,8506.0,6186.0,5735.0,3666.0,0.6154,0.0769,0.0,0.0769,0.0769,0.1538,0.0,0.0,,0.4747,,114460,38.64883,-121.497761
281,Fielding Graduate University,93105-3538,,8,,7035.0,0.3277,,,,,,,,,,,,,,,,,,,,,,,0.82,0.02,0.0,0.0,0.06,0.08,0.0,0.02,,,,114549,34.42941,-119.717161
282,Five Branches University,95062,,8,,,0.0189,,,,,,,,,,,,,,,,,,,,,,,,,,,,,,,,,,114585,36.964348,-121.998245
283,Redondo Beach Beauty College,90505,58.0,8,0.2277,,,,,,,,,,0.0862,0.3448,0.0862,0.0,0.9655,0.0345,,,,,,,,,,0.1667,0.0,0.0,0.0,0.0,0.1667,0.6667,0.0,,0.6034,,114637,33.873098,-118.372137
284,Foothill College,94022,10593.0,8,0.0678,9865.0,0.3196,,0.1429,0.0,0.654,0.4258,0.2,0.506,0.2886,0.3207,0.0345,0.0022,0.4755,0.5245,7875.0,6515.0,5500.0,6500.0,10500.0,6334.0,8802.0,7000.0,4901.0,0.5439,0.0351,0.0058,0.0,0.2047,0.0643,0.1462,0.0,,0.4451,,114716,37.361655,-122.127964
285,Franciscan School of Theology,92110,,8,,7402.0,,,,,,,,,,,,,,,,,,,,,,,,1.0,0.0,0.0,0.0,0.0,0.0,0.0,0.0,30.0,,,114734,32.770816,-117.192073
286,Fredrick and Charles Beauty College,95501,59.0,8,0.4545,,,,,,,,,,0.5593,0.1356,0.0169,0.1864,0.8814,0.1186,,,,,,,,,,1.0,0.0,0.0,0.0,0.0,0.0,0.0,0.0,,0.5085,,114761,40.798885,-124.164986
287,Fresno City College,93741,15554.0,8,0.2749,10096.0,0.3916,,,,,,,,0.1881,0.5947,0.0503,0.0055,0.6077,0.3923,3155.0,3500.0,3000.0,3307.0,4058.0,3200.0,3500.0,3500.0,2819.0,0.5416,0.0751,0.0429,0.0027,0.1877,0.0643,0.067,0.0161,,0.3565,,114789,36.768164,-119.796096
288,Fresno Pacific University,93702-4709,2668.0,8,0.6093,7738.0,0.9412,5.0,1.0,0.75,0.6364,0.6944,0.3846,0.7128,0.2549,0.5858,0.0472,0.0097,0.7279,0.2721,19000.0,19500.0,18750.0,16388.0,23146.0,18750.0,22000.0,19554.0,14945.0,0.7679,0.0179,0.0,0.0,0.125,0.0179,0.0625,0.0089,43.0,0.5722,,114813,36.726831,-119.735199
289,Fuller Theological Seminary,91182,,8,,8325.0,0.9833,,,,,,,,,,,,,,,,,,,,,,,0.5,0.04,0.0,0.0,0.08,0.12,0.24,0.0,78.0,,,114840,34.14778,-118.140261
290,Fullerton College,92832-2095,16287.0,8,0.25,10434.0,0.3807,,,,,,,,0.1634,0.5924,0.0298,0.0017,0.5435,0.4565,5500.0,7883.0,5500.0,6529.0,4500.0,6504.0,9350.0,6500.0,4750.0,0.5316,0.0253,0.0633,0.0,0.2089,0.0348,0.0981,0.0032,,0.271,,114859,33.875514,-117.918255
291,Gavilan College,95020,3744.0,8,0.249,9594.0,0.2937,,,,,,,,0.2439,0.6181,0.0235,0.0021,0.5401,0.4599,,5466.0,,5250.0,,,6459.0,,4664.0,0.5135,0.0541,0.0811,0.0,0.2838,0.0135,0.0405,0.0,,0.3962,,114938,36.972627,-121.569842
292,Gemological Institute of America-Carlsbad,92008,104.0,8,0.1168,,,,,,,,,,0.5385,0.1538,0.0192,0.0,0.5481,0.4519,,8233.0,,,,8233.0,8233.0,8233.0,4766.0,0.7692,0.0769,0.0,0.0,0.0385,0.0,0.0769,0.0385,,0.6923,,114947,33.131313,-117.318765
293,Glendale Community College,91208-2894,10107.0,8,0.3268,10426.0,0.3064,,,,,,,,0.5257,0.2858,0.0254,0.0012,0.5621,0.4379,,7000.0,,6750.0,8972.0,6576.0,8000.0,7425.0,5500.0,0.7073,0.0146,0.0098,0.0146,0.1463,0.0146,0.0829,0.0098,,0.4217,,115001,34.16745,-118.227666
294,Glendale Career College,91203,305.0,8,0.4716,8000.0,,,,1.0,0.4643,0.6279,0.3333,0.52,0.2492,0.3639,0.0557,0.0066,0.7967,0.2033,9319.0,9354.0,9500.0,4750.0,9500.0,9500.0,9500.0,9319.0,8750.0,0.25,0.0625,0.0625,0.0,0.3125,0.0625,0.25,0.0,,0.7246,,115010,34.149771,-118.254719
295,Golden Gate University,94105-2968,679.0,8,0.1563,9486.0,1.0,,,,,,,,0.3284,0.2077,0.2032,0.0162,0.2784,0.7216,23000.0,18750.0,18797.0,15368.0,29875.0,18750.0,,19422.0,,0.7593,0.0185,0.0,0.0,0.037,0.037,0.1481,0.0,,0.9276,,115083,37.789374,-122.398969
296,Golden West College,92647-2710,8830.0,8,0.2255,11874.0,0.2818,,,,,,,,0.2558,0.3342,0.0203,0.0017,0.5733,0.4267,5500.0,5500.0,2875.0,5250.0,7179.0,5500.0,6000.0,5250.0,4500.0,0.623,0.0,0.0164,0.0082,0.1148,0.0328,0.1967,0.0082,,0.2798,,115126,33.732531,-118.002568
297,Graduate Theological Union,94709,,8,,7390.0,0.6429,,,,,,,,,,,,,,,,,,,,,,,0.6,0.0,0.0,0.0,0.1,0.0,0.2,0.0,,,,115214,37.87554,-122.261847
298,Grossmont College,92020-1799,11455.0,8,0.2264,7839.0,0.4036,,,,,,,,0.3471,0.376,0.042,0.0031,0.6044,0.3956,4334.0,4500.0,3500.0,4500.0,8625.0,4500.0,5000.0,4500.0,3500.0,0.6265,0.0,0.0281,0.0,0.1486,0.0442,0.1044,0.004,,0.3283,,115296,32.815246,-117.006277
299,Salon Success Academy-Riverside,92506,116.0,8,0.7313,,,,,,,,,,0.0862,0.7155,0.0948,0.0086,0.7672,0.2328,,10545.0,,4211.0,11884.0,9742.0,11857.0,10534.0,9833.0,0.0,0.0,0.0,0.0,0.6,0.4,0.0,0.0,,0.4397,,115357,33.943149,-117.391024
300,Hartnell College,93901,8635.0,8,0.2451,9723.0,0.3554,,,,,,,,0.1511,0.6591,0.0287,0.0037,0.514,0.486,,,,,,,,,,0.4925,0.0,0.0224,0.0,0.3358,0.0299,0.1045,0.0149,,0.4073,,115393,36.675091,-121.666054
301,Harvey Mudd College,91711,905.0,8,0.1206,14431.0,0.9604,5.0,1.0,,1.0,0.8974,0.7,0.9846,0.2586,0.211,0.0453,0.0044,0.4972,0.5028,26500.0,19000.0,19500.0,10008.0,25000.0,23890.0,,18221.0,,0.6961,0.0196,0.0392,0.0,0.0686,0.0294,0.1471,0.0,,0.0011,,115409,34.106515,-117.709837
302,Hilltop Beauty School,94014,99.0,8,0.642,,,,,,,,,,0.0303,0.6364,0.0303,0.1313,0.8485,0.1515,,,,,,,,,,0.2,0.0,0.0,0.0,0.4,0.0,0.4,0.0,,0.7576,,115658,37.705502,-122.461467
303,Holy Names University,94619-1699,592.0,8,0.4598,8092.0,0.1795,3.0,0.6667,,0.6667,0.5,0.7368,0.6667,0.1284,0.3243,0.1689,0.0034,0.6639,0.3361,15750.0,18250.0,15750.0,10000.0,24125.0,15000.0,23000.0,18000.0,15000.0,0.5143,0.0,0.0286,0.0,0.0286,0.0571,0.3714,0.0,30.0,0.2131,,115728,37.802276,-122.187804
304,Pacifica Graduate Institute,93013,,8,,7234.0,0.1684,,,,,,,,,,,,,,,,,,,,,,,0.8485,0.0303,0.0,0.0,0.0606,0.0606,0.0,0.0,,,,115746,34.420881,-119.580414
305,California State Polytechnic University-Humboldt,95521-8299,5336.0,8,0.515,9796.0,0.5407,3.0,0.0,0.5385,0.5789,0.441,0.2826,0.5213,0.4681,0.3285,0.0328,0.0137,0.5838,0.4162,15000.0,14283.0,14000.0,11000.0,18000.0,14630.0,16500.0,14250.0,14000.0,0.7181,0.0077,0.1042,0.0,0.0579,0.0232,0.0463,0.027,,0.252,,115755,40.877481,-124.078293
306,Humphreys University-Stockton and Modesto Campuses,95207,197.0,8,0.6696,5621.0,0.1346,,,,1.0,0.5556,1.0,0.6667,0.203,0.4061,0.0711,0.0,0.7766,0.2234,22775.0,25529.0,19917.0,14966.0,35500.0,22775.0,25780.0,25000.0,21858.0,0.875,0.0,0.0,0.0,0.125,0.0,0.0,0.0,,0.6784,,115773,38.011489,-121.316918
307,Imperial Valley College,92251-0158,6385.0,8,0.5158,9841.0,0.5808,,,,,,,,0.044,0.9068,0.0125,0.0011,0.5801,0.4199,,,,,,,,,,0.3841,0.0132,0.0066,0.0,0.4901,0.0464,0.0596,0.0,,0.3044,,115861,32.827209,-115.503563
308,Institute for Business and Technology,95051-1303,693.0,8,0.3813,5786.0,0.52,,,,,,,,0.0981,0.6551,0.0332,0.0,0.2713,0.7287,7600.0,7600.0,5133.0,3800.0,7853.0,8867.0,8489.0,7600.0,5133.0,0.6154,0.0,0.0,0.0,0.2308,0.0,0.1538,0.0,,0.4545,,115931,37.368642,-121.969541
309,Interior Designers Institute,92660,110.0,8,0.2374,8130.0,,,,,1.0,,,1.0,0.6,0.1545,0.0182,0.0091,0.9909,0.0091,,17870.0,,11566.0,22082.0,,,,,1.0,0.0,0.0,0.0,0.0,0.0,0.0,0.0,,0.7091,,116226,33.641393,-117.865722
310,International School of Cosmetology,90036,158.0,8,0.5458,,,,,,,,,,0.3165,0.4177,0.057,0.0823,0.8228,0.1772,10556.0,11637.0,10555.0,5500.0,13572.0,12958.0,13690.0,10556.0,9596.0,0.4444,0.0,0.0,0.0,0.3333,0.2222,0.0,0.0,,0.5253,,116350,34.080053,-118.361176
311,Irvine Valley College,92618-0301,9140.0,8,0.1796,11564.0,0.2868,,,,,,,,0.3045,0.2519,0.0201,0.0025,0.4845,0.5155,4500.0,4500.0,4141.0,4500.0,6500.0,4500.0,4500.0,4500.0,4500.0,0.5724,0.0066,0.0658,0.0461,0.1382,0.0197,0.0987,0.0132,,0.2352,,116439,33.675381,-117.777539
312,Bellus Academy-El Cajon,92021,226.0,8,0.5813,,,,,,,,,,0.3009,0.3053,0.1814,0.0133,0.969,0.031,6333.0,6333.0,5500.0,4727.0,6333.0,,6333.0,,5500.0,0.1111,0.1111,0.2222,0.0,0.2222,0.1111,0.2222,0.0,,0.5664,,116563,32.794072,-116.94627
313,American Jewish University,90077-1519,22.0,8,0.4762,13118.0,1.0,,,,,,,,0.6364,0.0909,0.0455,0.0,0.9091,0.0909,,,,,,,,,,1.0,0.0,0.0,0.0,0.0,0.0,0.0,0.0,80.0,0.8125,,116846,34.128153,-118.471706
314,Reedley College,93654,3852.0,8,0.2731,9977.0,0.4679,,,,,,,,0.1698,0.7329,0.0296,0.0023,0.5631,0.4369,3500.0,4000.0,3500.0,3500.0,2819.0,5500.0,4500.0,3495.0,3500.0,0.5163,0.0065,0.0327,0.0065,0.3268,0.0392,0.0719,0.0,,0.2008,,117052,36.605428,-119.458555
315,Life Pacific University,91773-3298,419.0,8,0.502,6168.0,0.2169,5.0,0.0,,1.0,0.5313,0.6667,0.4054,0.3938,0.3938,0.0477,0.0143,0.5465,0.4535,13458.0,15400.0,12000.0,7500.0,22395.0,12000.0,15231.0,16659.0,13100.0,0.5556,0.0,0.0,0.0556,0.2222,0.1111,0.0556,0.0,79.0,0.2476,,117104,34.098705,-117.829388
316,University of La Verne,91750-4401,3686.0,8,0.4706,9284.0,0.3388,5.0,0.6,,0.6667,0.709,0.6286,0.6918,0.1744,0.6069,0.0711,0.0035,0.6034,0.3966,21250.0,21950.0,19804.0,15750.0,23500.0,20500.0,24366.0,21500.0,18500.0,0.5207,0.0184,0.1429,0.0,0.1613,0.0553,0.0968,0.0,,0.32,,117140,34.100855,-117.773262
317,Laguna College of Art and Design,92651,735.0,8,0.3566,9260.0,0.1337,3.0,,,0.8,0.6875,1.0,0.7083,0.4721,0.2327,0.0231,0.0054,0.7361,0.2639,19500.0,19500.0,15250.0,11000.0,27000.0,19500.0,28430.0,18500.0,17500.0,0.6667,0.037,0.1852,0.0,0.037,0.0,0.0741,0.0,,0.1905,,117168,33.561448,-117.772564
318,Lake Tahoe Community College,96150,1830.0,8,0.1458,9212.0,0.1897,,,,,,,,0.4082,0.3579,0.0672,0.0093,0.3738,0.6262,,,,,,5500.0,,4000.0,,0.7576,0.0303,0.0606,0.0,0.1212,0.0,0.0303,0.0,,0.5988,,117195,38.926797,-119.972574
319,Lancaster Beauty School,93534,82.0,8,0.4821,,,,,,,,,,0.2927,0.3659,0.2805,0.0,0.7805,0.2195,,8550.0,,8600.0,6333.0,9667.0,9225.0,6333.0,5500.0,0.6,0.0,0.0,0.0,0.2,0.0,0.2,0.0,,0.4512,,117238,34.694914,-118.147547
320,Laney College,94607,5722.0,8,0.1496,9840.0,0.3758,,,,,,,,0.2045,0.2382,0.1914,0.0024,0.5229,0.4771,,9426.0,,9301.0,,9191.0,9500.0,9500.0,6875.0,0.4274,0.0161,0.0565,0.0,0.129,0.1935,0.1774,0.0,,0.4515,,117247,37.797257,-122.26283
321,Lassen Community College,96130,1392.0,8,0.0978,8201.0,0.3772,,,,,,,,0.403,0.3111,0.1379,0.0201,0.2342,0.7658,,5500.0,,,,5500.0,8897.0,5500.0,5500.0,0.7907,0.0,0.0698,0.0,0.0698,0.0,0.0465,0.0233,,0.6391,,117274,40.432053,-120.633271
322,Latin American Bible Institute,91746-3099,49.0,8,0.3559,,,5.0,,,,0.25,,,0.0204,0.9796,0.0,0.0,0.551,0.449,,,,,,,,,,,,,,,,,,27.0,0.3673,,117283,34.030992,-117.989601
323,Life Chiropractic College West,94545-2570,,8,,8027.0,0.3556,,,,,,,,,,,,,,,,,,,,,,,0.697,0.0606,0.0,0.0303,0.0606,0.0909,0.0606,0.0,,,,117520,37.638099,-122.117619
324,Lincoln University,94612-2801,168.0,8,0.2184,6701.0,0.5806,,,,1.0,,,,0.1548,0.0238,0.5179,0.0,0.2202,0.7798,,,,8500.0,,5500.0,,28188.0,,0.8462,0.0,0.0,0.0,0.0,0.0,0.1538,0.0,,0.3274,,117557,37.804788,-122.269745
325,Southern California Seminary,92019-1108,46.0,8,0.5,5571.0,0.3214,,,,,,,,0.4565,0.2391,0.2174,0.0,0.3478,0.6522,,,,,,,,,,0.4,0.0,0.0,0.0,0.0,0.2,0.4,0.0,54.0,0.8261,,117575,32.799614,-116.905461
326,La Sierra University,92505-8247,1270.0,8,0.4411,8020.0,0.5138,1.0,0.3333,0.0,0.463,0.4597,0.4615,0.4872,0.115,0.4591,0.074,0.0008,0.5866,0.4134,19629.0,22404.0,15000.0,10349.0,27000.0,18500.0,24781.0,18797.0,18042.0,0.5192,0.0,0.0,0.0385,0.1346,0.0192,0.1058,0.0096,95.0,0.0792,,117627,33.910704,-117.500054
327,Loma Linda University,92350,980.0,8,0.3099,8935.0,0.9504,,,,,,,,0.248,0.3888,0.0408,0.0,0.7367,0.2633,18088.0,21000.0,15000.0,12500.0,20854.0,17278.0,22593.0,16999.0,15000.0,0.5631,0.0327,0.0,0.0023,0.0935,0.0724,0.1893,0.0,95.0,0.5638,,117636,34.051241,-117.260605
328,Long Beach City College,90808-1706,19918.0,8,0.3556,7694.0,0.3272,,,,,,,,0.1461,0.5899,0.1108,0.0013,0.5702,0.4298,5000.0,8000.0,5500.0,7000.0,10500.0,7000.0,9500.0,7000.0,5000.0,0.553,0.0,0.0,0.0066,0.202,0.0828,0.1093,0.0066,,0.3808,,117645,33.833593,-118.135633
329,Southern California University of Health Sciences,90604,130.0,8,0.1148,7714.0,0.2335,,,,,1.0,,,0.2385,0.3692,0.1308,0.0,0.8308,0.1692,,9900.0,,7600.0,11400.0,17665.0,,7600.0,,0.4688,0.0938,0.0,0.0,0.1563,0.125,0.1563,0.0,,0.6679,,117672,33.922966,-117.983401
330,Los Angeles Harbor College,90744-2397,5487.0,8,0.2011,10764.0,0.281,,,,,,,,0.1172,0.6045,0.0931,0.0013,0.6067,0.3933,,6875.0,,6875.0,,5750.0,7000.0,5500.0,5000.0,0.3023,0.0,0.2326,0.0,0.2326,0.1047,0.1279,0.0,,0.342,,117690,33.785825,-118.283549
331,Los Angeles Pierce College,91371-0002,13016.0,8,0.2454,10522.0,0.3609,,,,,,,,0.2759,0.4933,0.0459,0.001,0.5695,0.4305,9451.0,14250.0,5750.0,12500.0,12936.0,11500.0,17500.0,12730.0,5637.0,0.5683,0.0176,0.1013,0.0,0.1189,0.0661,0.1233,0.0044,,0.3371,,117706,34.183949,-118.575071
332,Los Angeles Southwest College,90047-4899,3539.0,8,0.2438,9976.0,0.3213,,,,,,,,0.0718,0.4349,0.3781,0.002,0.6979,0.3021,,10000.0,,9875.0,,10500.0,10500.0,9750.0,5550.0,0.125,0.0125,0.2125,0.0,0.1375,0.4625,0.0375,0.0,,0.4648,,117715,33.929586,-118.304674
333,Los Angeles Trade Technical College,90015-4181,7867.0,8,0.2374,11144.0,0.378,,,,,,,,0.0822,0.6723,0.1373,0.0017,0.4646,0.5354,,9500.0,,9500.0,10500.0,9274.0,9750.0,9500.0,5500.0,0.2384,0.0058,0.2384,0.0,0.2209,0.1919,0.0988,0.0058,,0.4335,,117724,34.031907,-118.269447
334,Los Angeles Valley College,91401-4096,11201.0,8,0.2428,10413.0,0.2899,,,,,,,,0.2908,0.5132,0.0537,0.0011,0.5861,0.4139,,9738.0,,9500.0,10500.0,9500.0,10500.0,9500.0,5500.0,0.5389,0.0167,0.0722,0.0,0.1889,0.0667,0.0944,0.0111,,0.4191,,117733,34.175165,-118.421734
335,The Master's University and Seminary,91321-1200,1338.0,8,0.2456,8364.0,0.3527,2.0,,,0.6667,0.8824,0.4,0.7397,0.6278,0.1936,0.0247,0.012,0.4776,0.5224,17545.0,14500.0,17500.0,10500.0,20500.0,18000.0,12729.0,15000.0,17750.0,0.9565,0.0,0.0,0.0,0.0,0.0145,0.029,0.0,42.0,0.4488,,117751,34.381755,-118.518193
336,Los Angeles City College,90029,10494.0,8,0.2513,11073.0,0.3287,,,,,,,,0.2261,0.4929,0.0859,0.0016,0.5776,0.4224,8974.0,10000.0,5500.0,9500.0,12750.0,9884.0,10500.0,9500.0,5500.0,0.439,0.0122,0.2073,0.0,0.1585,0.0549,0.128,0.0,,0.5168,,117788,34.087301,-118.292169
337,Los Angeles County College of Nursing and Allied Health,90033-1084,180.0,8,0.345,11836.0,1.0,,,,,,,,0.2056,0.4278,0.0389,0.0111,0.7056,0.2944,,9895.0,,,9500.0,11290.0,,8125.0,,0.24,0.0,0.0,0.0,0.36,0.16,0.24,0.0,,0.7944,,117803,34.062647,-118.211852
338,Los Angeles Mission College,91342-3200,6538.0,8,0.2004,10747.0,0.2975,,,,,,,,0.1199,0.7482,0.0353,0.0017,0.6159,0.3841,,10500.0,,10125.0,12678.0,10500.0,11000.0,10000.0,5000.0,0.4381,0.0,0.0571,0.0,0.3143,0.0476,0.1143,0.0095,,0.3394,,117867,34.314668,-118.4195
339,Los Medanos College,94565,6919.0,8,0.2144,9910.0,0.4133,,,,,,,,0.2114,0.4329,0.1207,0.002,0.5764,0.4236,6850.0,9500.0,6250.0,8750.0,,7125.0,9500.0,9500.0,5500.0,0.5315,0.014,0.0699,0.0,0.1608,0.1259,0.0909,0.007,,0.279,,117894,38.006474,-121.860967
340,Loyola Marymount University,90045-2659,6999.0,8,0.1431,12022.0,0.5876,5.0,1.0,0.0,0.8429,0.7942,0.7579,0.8082,0.4243,0.2283,0.0716,0.0004,0.5358,0.4642,15750.0,13950.0,15500.0,7625.0,19500.0,15392.0,12500.0,15000.0,15644.0,0.5839,0.0129,0.0968,0.0,0.0871,0.0629,0.1306,0.0032,30.0,0.0168,,117946,33.97085,-118.415744
341,Lu Ross Academy,93001-2729,272.0,8,0.4514,,,,,,,,,,0.136,0.7978,0.0,0.0037,0.8015,0.1985,6333.0,6333.0,6333.0,5500.0,6333.0,8412.0,6333.0,6333.0,5500.0,0.7778,0.0,0.0,0.0,0.2222,0.0,0.0,0.0,,0.4044,,117955,34.278034,-119.293952
342,Lyle's College of Beauty,93301,93.0,8,0.34,,,,,,,,,,0.3333,0.6237,0.0108,0.0,0.9785,0.0215,,6333.0,,3166.0,6333.0,,6333.0,,4583.0,0.6667,0.0,0.0,0.0,0.3333,0.0,0.0,0.0,,0.3871,,118134,35.386539,-119.02387
343,Lyle's College of  Beauty,93710,103.0,8,0.3657,,,,,,,,,,0.2233,0.5728,0.0583,0.0291,0.9612,0.0388,,6333.0,,3166.0,6333.0,,6333.0,,4583.0,0.5,0.0,0.0,0.0,0.25,0.25,0.0,0.0,,0.4757,,118143,36.836265,-119.774167
344,Lytles Redwood Empire Beauty College,95403,76.0,8,0.3723,,,,,,,,,,0.6447,0.2895,0.0132,0.0395,0.9474,0.0526,6333.0,6333.0,10555.0,,8682.0,,6333.0,,9778.0,0.875,0.0,0.0,0.0,0.0,0.125,0.0,0.0,,0.3421,,118161,38.508385,-122.75777
345,MTI College,95841-9817,550.0,8,0.3011,3536.0,0.2113,3.0,,,,,,,0.3273,0.3127,0.1145,0.0073,0.7727,0.2273,7773.0,6610.0,8836.0,4360.0,8836.0,7216.0,7307.0,7043.0,6580.0,0.6,0.0,0.0,0.0,0.1333,0.0667,0.2,0.0,,0.5369,,118198,38.661377,-121.342568
346,College of Marin,94904-2590,3584.0,8,0.1348,12424.0,0.4545,,,,,,,,0.4637,0.3331,0.0338,0.0028,0.5977,0.4023,,10700.0,,10000.0,10062.0,9500.0,10900.0,10500.0,5500.0,0.6417,0.0167,0.175,0.0,0.0917,0.0333,0.0333,0.0083,,0.4488,,118347,37.954897,-122.549149
347,Marymount California University,90275-6299,443.0,8,0.4194,8640.0,0.6098,,0.0,,0.3077,0.5222,0.2917,0.4889,0.2122,0.4673,0.0903,0.0,0.5214,0.4786,15125.0,17750.0,14500.0,8750.0,20500.0,15000.0,18125.0,15000.0,15000.0,0.76,0.0,0.0,0.0,0.04,0.12,0.08,0.0,30.0,0.0722,,118541,33.734887,-118.333371
348,Mendocino College,95482,2223.0,8,0.251,10539.0,0.2174,,,,,,,,0.4642,0.3824,0.013,0.0477,0.7067,0.2933,,9500.0,,9364.0,10836.0,9500.0,9625.0,9500.0,8250.0,0.6833,0.0167,0.05,0.0,0.2,0.0,0.0333,0.0,,0.3845,,118684,39.188989,-123.228809
349,Menlo College,94027-4301,743.0,8,0.3366,9962.0,0.2449,3.0,0.0,,0.6111,0.6429,0.5833,0.4737,0.2032,0.3149,0.0525,0.0054,0.4563,0.5437,17750.0,13000.0,12000.0,8250.0,21750.0,14000.0,19284.0,13000.0,13000.0,0.2917,0.1667,0.1667,0.0,0.0417,0.0417,0.2917,0.0,,0.0685,,118693,37.453475,-122.190797
350,Merced College,95348-2806,7737.0,8,0.2926,8807.0,0.3576,,,,,,,,0.1768,0.6276,0.0333,0.0048,0.6106,0.3894,,4750.0,,,,,4750.0,,3150.0,0.6374,0.0165,0.0385,0.0,0.1703,0.0604,0.0604,0.0055,,0.2941,,118718,37.3353,-120.476464
351,Merritt College,94619-3196,4798.0,8,0.0988,9795.0,0.2686,,,,,,,,0.2003,0.2849,0.217,0.0025,0.6722,0.3278,,9500.0,,9500.0,,10500.0,10475.0,9500.0,6000.0,0.2769,0.0769,0.0923,0.0,0.1538,0.3231,0.0769,0.0,,0.4796,,118772,37.789088,-122.167335
352,Mills College,94613,438.0,8,0.4563,10284.0,0.3487,5.0,0.0,,0.7333,0.6053,0.8571,0.625,0.3333,0.3402,0.1301,0.0,0.9954,0.0046,16532.0,18375.0,12000.0,9500.0,21481.0,,20924.0,,14125.0,0.481,0.038,0.038,0.0,0.1139,0.1139,0.1772,0.0127,,0.1816,,118888,37.781425,-122.182294
353,MiraCosta College,92056-3899,10436.0,8,0.249,13738.0,0.2578,,0.3333,0.5,0.4268,0.3255,0.2,0.3972,0.3879,0.3861,0.0356,0.0049,0.6025,0.3975,9500.0,9500.0,4359.0,9500.0,9000.0,9500.0,9500.0,9054.0,4935.0,0.5747,0.0,0.092,0.0,0.1954,0.0575,0.0632,0.0057,,0.3966,,118912,33.190483,-117.302606
354,Mission College,95054-1897,4950.0,8,0.1432,11776.0,0.491,,,,,,,,0.1436,0.3352,0.0356,0.0016,0.5608,0.4392,,,,,,,,,,0.5183,0.0,0.0122,0.0,0.128,0.0732,0.2317,0.0,,0.4343,,118930,37.391935,-121.980783
355,Modern Beauty Academy,93030,81.0,8,0.3867,,,,,,,,,,0.0,0.8765,0.037,0.0,0.5926,0.4074,,,,,,,,,,0.0,0.0,0.0,0.0,1.0,0.0,0.0,0.0,,0.5432,,118958,34.195384,-119.181423
356,Modesto Junior College,95350-5800,12949.0,8,0.2984,10245.0,0.4458,,0.0,0.1667,0.3068,0.1658,0.1905,0.308,0.3414,0.5342,0.0318,0.0056,0.6236,0.3764,,,,,,,,,,0.7059,0.0039,0.0353,0.0039,0.1451,0.0471,0.051,0.0039,,0.3129,,118976,37.651056,-121.009792
357,Moler Barber College,94609-2419,346.0,8,0.3776,,,,,,,,,,0.0665,0.3931,0.3555,0.0231,0.422,0.578,9250.0,7253.0,5500.0,4750.0,10556.0,9500.0,9500.0,5500.0,6317.0,0.1667,0.0833,0.0,0.0833,0.1667,0.3333,0.1667,0.0,,0.5838,,118994,37.827075,-122.265352
358,Middlebury Institute of International Studies at Monterey,93940,13.0,8,0.3077,10138.0,0.8,,,,,,,,0.5385,0.1538,0.0,0.0,0.3077,0.6923,11975.0,7303.0,13153.0,8000.0,13857.0,12000.0,4386.0,10406.0,12482.0,0.5507,0.0,0.1449,0.0,0.058,0.0,0.1594,0.0,,0.6923,,119058,36.599736,-121.897325
359,Monterey Peninsula College,93940-4799,5706.0,8,0.17,9447.0,0.3692,,,,,,,,0.3326,0.469,0.03,0.0028,0.5519,0.4481,8500.0,9500.0,5500.0,7853.0,,6875.0,9500.0,9000.0,5500.0,0.6378,0.0079,0.0,0.0236,0.1339,0.0551,0.0945,0.0157,,0.438,,119067,36.590558,-121.884931
360,Moorpark College,93021-1695,11336.0,8,0.1524,9615.0,0.3353,,,,,,,,0.4005,0.4047,0.0213,0.0021,0.543,0.457,6750.0,9080.0,5500.0,6725.0,9500.0,6500.0,10400.0,8000.0,5500.0,0.657,0.0349,0.0349,0.0,0.1453,0.0174,0.0814,0.0,,0.2505,,119137,34.301146,-118.834528
361,Mt San Antonio College,91789-1399,22907.0,8,0.313,11256.0,0.4143,,,,,,,,0.0936,0.6368,0.0357,0.0016,0.5411,0.4589,5250.0,5500.0,4500.0,5500.0,5880.0,5500.0,6900.0,5250.0,4500.0,0.4562,0.0337,0.1169,0.009,0.2135,0.036,0.1169,0.0067,,0.3263,,119164,34.047764,-117.846629
362,Mount Saint Mary's University,90049-1599,1898.0,8,0.5569,10354.0,0.3191,3.0,0.0,,0.6667,0.595,0.5,0.6471,0.0964,0.5674,0.0601,0.0021,0.9368,0.0632,23250.0,22375.0,18914.0,11941.0,25949.0,16000.0,22085.0,22291.0,22250.0,0.6889,0.0444,0.0,0.0,0.0815,0.0815,0.1037,0.0,30.0,0.2306,,119173,34.085315,-118.482879
363,Mt San Jacinto Community College District,92583-2399,12452.0,8,0.2728,11084.0,0.1757,,,,,,,,0.2681,0.485,0.0538,0.0045,0.5997,0.4003,,,,,,,8610.0,,4760.0,0.5683,0.0055,0.0383,0.0055,0.2568,0.0601,0.0492,0.0164,,0.3721,,119216,33.806748,-116.971169
364,Musicians Institute,90028,744.0,8,0.1936,2543.0,0.3011,2.0,1.0,0.0,0.75,0.5161,0.2222,0.4697,0.2675,0.1116,0.0685,0.0054,0.2742,0.7258,6334.0,6334.0,5501.0,,,6334.0,6334.0,7438.0,5833.0,0.8302,0.0566,0.0,0.0,0.0189,0.0377,0.0566,0.0,,0.3982,,119270,34.101265,-118.337582
365,Napa Valley College,94558-6236,3777.0,8,0.187,9802.0,0.3813,,,,,,,,0.2483,0.4692,0.0511,0.0029,0.5986,0.4014,,9187.0,,9133.0,10147.0,9333.0,9500.0,9461.0,5500.0,0.614,0.0088,0.0088,0.0,0.2368,0.0439,0.0614,0.0263,,0.2961,,119331,38.274081,-122.274381
366,National Holistic Institute,94608-2008,1201.0,8,0.5698,,,,,,,,,,0.3389,0.2348,0.1049,0.0158,0.7585,0.2415,9500.0,9500.0,8750.0,4750.0,9500.0,9500.0,9500.0,9500.0,5500.0,0.3091,0.1091,0.4727,0.0,0.0545,0.0182,0.0364,0.0,,0.8776,,119553,37.841898,-122.287672
367,National University,92123,7160.0,8,0.1654,10145.0,0.09,3.0,,,,0.5714,1.0,0.2857,0.3272,0.3068,0.1041,0.0061,0.5179,0.4821,18664.0,20000.0,18000.0,10500.0,25000.0,18252.0,20057.0,19683.0,13863.0,0.6329,0.0633,0.0802,0.0,0.0633,0.0759,0.0844,0.0,,0.8218,,119605,32.909894,-117.243026
368,Naval Postgraduate School,93943,,0,,14550.0,0.8759,,,,,,,,,,,,,,,,,,,,,,,0.8518,0.0047,0.0118,0.0071,0.0376,0.0071,0.0776,0.0024,,,,119678,36.597159,-121.874248
369,Newschool of Architecture and Design,92101,301.0,8,0.4318,6756.0,0.0917,3.0,0.0,,1.0,0.4444,0.0,0.4615,0.392,0.0,0.0764,0.0299,0.412,0.588,11141.0,30053.0,23000.0,12537.0,31000.0,26907.0,25000.0,19200.0,20833.0,0.8,0.1,0.0,0.0,0.1,0.0,0.0,0.0,,0.3654,,119775,32.71331,-117.153305
370,North Adrian's College of Beauty Inc,95350-2381,221.0,8,0.4195,,,,,,,,,,0.3529,0.4615,0.1086,0.0,0.9367,0.0633,,9500.0,,7750.0,11000.0,9500.0,9500.0,9500.0,7000.0,,,,,,,,,,0.3484,,119951,37.677778,-120.992753
371,North-West College-Pomona,91768,190.0,8,0.6825,,,,,,,,,,0.0895,0.3842,0.0684,0.0263,0.9053,0.0947,9500.0,9500.0,5500.0,4750.0,9500.0,9475.0,9500.0,9500.0,5500.0,0.1538,0.1538,0.0769,0.0,0.3846,0.0769,0.1538,0.0,,0.5579,,120069,34.062043,-117.751227
372,North-West College-West Covina,91790,384.0,8,0.613,6683.0,,,,,,,,,0.3229,0.1484,0.0365,0.0365,0.8802,0.1198,9500.0,9500.0,5500.0,4724.0,9500.0,9500.0,9500.0,9500.0,5857.0,0.2143,0.0714,0.0,0.0,0.4286,0.1429,0.1429,0.0,,0.5547,,120078,34.072071,-117.949583
373,North-West College-Van Nuys,91411,171.0,8,0.4858,,,,,,,,,,0.0877,0.614,0.0936,0.0058,0.8596,0.1404,7969.0,8555.0,5500.0,3701.0,9500.0,5500.0,9500.0,8839.0,5500.0,0.0,0.3333,0.0,0.0,0.0,0.6667,0.0,0.0,,0.614,,120087,34.189497,-118.450184
374,San Francisco Bay University,94539,6.0,8,0.0,5463.0,0.6,5.0,,,,,,,0.0,0.0,0.0,0.0,0.5,0.5,,,,,,,,,,0.5,0.0,0.0,0.0,0.0,0.0,0.5,0.0,,0.3333,,120166,37.477991,-121.925953
375,Notre Dame de Namur University,94002-1908,0.0,8,0.3981,8407.0,0.1481,,0.75,0.0,0.56,0.5412,0.4545,0.7273,0.0,0.0,0.0,0.0,0.0,0.0,17500.0,18750.0,12000.0,11000.0,25000.0,14000.0,22550.0,17500.0,13375.0,0.75,0.0,0.0,0.0,0.0,0.0,0.25,0.0,30.0,,,120184,37.517111,-122.284794
376,Occidental College,90041-3392,1952.0,8,0.1811,11376.0,0.7608,5.0,1.0,,0.7714,0.7802,0.875,0.8519,0.4698,0.1578,0.0456,0.0,0.5789,0.4211,17500.0,19000.0,19248.0,9080.0,23000.0,17250.0,,19305.0,,0.5567,0.0103,0.1082,0.0,0.1134,0.0567,0.1495,0.0,,0.0041,,120254,34.127124,-118.210908
377,Ohlone College,94539-0390,6929.0,8,0.1173,12336.0,0.2857,,,,,,,,0.152,0.2465,0.0333,0.0009,0.5084,0.4916,,9500.0,,9000.0,,9500.0,,8500.0,,0.4667,0.0,0.0667,0.0,0.1583,0.0583,0.2333,0.0083,,0.2913,,120290,37.52773,-121.916339
378,Orange Coast College,92626,15761.0,8,0.2073,11727.0,0.3485,,,,,,,,0.3012,0.3341,0.0169,0.0024,0.5165,0.4835,5500.0,7465.0,4500.0,5519.0,9500.0,5717.0,9173.0,6782.0,4500.0,0.6808,0.0077,0.0115,0.0038,0.1308,0.0308,0.1,0.0,,0.2865,,120342,33.66927,-117.909086
379,Otis College of Art and Design,90045-3505,1191.0,8,0.367,8226.0,0.1374,5.0,,,0.74,0.75,0.7692,0.6364,0.2208,0.2007,0.0537,0.0017,0.6969,0.3031,19500.0,21500.0,19399.0,8250.0,27000.0,19750.0,25000.0,20000.0,19500.0,0.6383,0.0213,0.0638,0.0,0.1064,0.0213,0.1277,0.0213,,0.0969,,120403,33.956607,-118.416615
380,Oxnard College,93033-6699,5789.0,8,0.3244,9236.0,0.4087,,,,,,,,0.147,0.7329,0.0202,0.0017,0.5535,0.4465,,7500.0,,,,7750.0,,7333.0,,0.4757,0.0194,0.0097,0.0097,0.3107,0.0583,0.0971,0.0,,0.3082,,120421,34.166104,-119.157604
381,Hope International University,92831-3199,619.0,8,0.4855,5666.0,0.1632,5.0,,0.5,1.0,0.2759,0.5,0.3235,0.3489,0.2504,0.0889,0.0097,0.5557,0.4443,15072.0,17750.0,15000.0,8756.0,23000.0,14000.0,23000.0,16948.0,14568.0,0.8235,0.0,0.0,0.0,0.0588,0.0882,0.0294,0.0,48.0,0.1826,,120537,33.87616,-117.88573
382,Concorde Career College-San Diego,92113-1964,735.0,8,0.6162,6707.0,0.5584,3.0,,,,,,,0.0694,0.2816,0.0422,0.0027,0.7837,0.2163,9500.0,9500.0,9500.0,4750.0,9500.0,9500.0,9500.0,9500.0,5500.0,0.3889,0.0,0.0,0.0,0.2222,0.1667,0.1667,0.0556,,0.5524,,120661,32.702814,-117.102845
