school name,id,latitude,longitude
Alabama A & M University,100654,34.783368,-86.568502
University of Alabama at Birmingham,100663,33.505697,-86.799345
Amridge University,100690,32.362609,-86.17401
University of Alabama in Huntsville,100706,34.724557,-86.640449
Alabama State University,100724,32.364317,-86.295677
The University of Alabama,100751,33.211875,-87.545978
Central Alabama Community College,100760,32.92478,-85.945266
Athens State University,100812,34.806793,-86.964698
Auburn University at Montgomery,100830,32.36736,-86.177544
Auburn University,100858,32.599378,-85.488258
Birmingham-Southern College,100937,33.513774,-86.850552
Chattahoochee Valley Community College,101028,32.42391,-85.031485
South University-Montgomery,101116,32.342684,-86.216488
Enterprise State Community College,101143,31.297496,-85.836956
Coastal Alabama Community College,101161,30.851343,-87.778193
Faulkner University,101189,32.384181,-86.21641
Gadsden State Community College,101240,33.994001,-85.991438
New Beginning College of Cosmetology,101277,34.27871,-86.196931
George C Wallace Community College-Dothan,101286,31.315274,-85.465836
George C Wallace State Community College-Hanceville,101295,34.072439,-86.781935
George C Wallace State Community College-Selma,101301,32.445917,-87.013294
Herzing University-Birmingham,101365,33.468466,-86.832465
Huntingdon College,101435,32.351034,-86.284366
Heritage Christian University,101453,34.856153,-87.663051
J. F. Drake State Community and Technical College,101462,34.771858,-86.572885
J F Ingram State Technical College,101471,32.582312,-86.392369
Jacksonville State University,101480,33.822938,-85.765321
Jefferson State Community College,101505,33.652535,-86.707233
John C Calhoun State Community College,101514,34.645844,-86.949674
Lawson State Community College,101569,33.450814,-86.888844
University of West Alabama,101587,32.588132,-88.186329
Lurleen B Wallace Community College,101602,31.322947,-86.452262
Marion Military Institute,101648,32.623734,-87.322041
Miles College,101675,33.482442,-86.908751
University of Mobile,101693,30.793247,-88.128934
University of Montevallo,101709,33.10625,-86.865099
Northwest-Shoals Community College,101736,34.739788,-87.678089
University of North Alabama,101879,34.806738,-87.681361
Northeast Alabama Community College,101897,34.545471,-85.911664
Oakwood University,101912,34.756344,-86.652705
Reid State Technical College,101994,31.460265,-86.964797
Bishop State Community College,102030,30.693972,-88.056982
Samford University,102049,33.464128,-86.791799
Shelton State Community College,102067,33.120531,-87.56148
Snead State Community College,102076,34.201495,-86.169897
University of South Alabama,102094,30.696033,-88.178711
Spring Hill College,102234,30.694751,-88.138199
Stillman College,102270,33.200006,-87.585278
Talladega College,102298,33.433472,-86.112704
H Councill Trenholm State Community College,102313,32.350109,-86.343057
Troy University,102368,31.800672,-85.957094
Tuskegee University,102377,32.4309,-85.708492
United States Sports Academy,102395,30.639329,-87.91163
Bevill State Community College,102429,33.836929,-87.266406
University of Alaska Anchorage,102553,61.190163,-149.82619
Alaska Bible College,102580,61.598553,-149.111972
University of Alaska Fairbanks,102614,64.85756,-147.823146
University of Alaska Southeast,102632,58.384846,-134.638255
Alaska Pacific University,102669,61.190968,-149.804168
Alaska Vocational Technical Center,102711,60.110626,-149.444487
Charter College,102845,45.617798,-122.494766
Alaska Career College,103501,61.181443,-149.856954
Empire Beauty School-Tucson,103741,32.235657,-110.927187
Carrington College-Phoenix North,103893,33.565758,-112.104601
Carrington College-Mesa,103909,33.39248,-111.853218
Carrington College-Tucson,103927,32.224391,-110.983056
Arizona Academy of Beauty,103954,32.237253,-110.872305
Miller-Motte College-Arizona Automotive Institute,103963,33.537249,-112.157344
Brookline College-Phoenix,104090,33.566102,-112.112473
Arizona State University Campus Immersion,104151,33.417721,-111.934383
Arizona Western College,104160,32.689306,-114.495968
University of Arizona,104179,32.232672,-110.950815
Central Arizona College,104346,32.957092,-111.652501
Charles of Italy Beauty College,104391,34.477485,-114.332686
Cochise County Community College District,104425,31.564597,-110.246946
Empire Beauty School-Chandler,104443,33.347586,-111.860423
Avalon Institute-Mesa,104568,33.376583,-111.858305
Eastern Arizona College,104577,32.843664,-109.76234
Embry-Riddle Aeronautical University-Prescott,104586,34.616766,-112.449741
The School of Architecture,104665,33.566649,-111.941953
Glendale Community College,104708,33.570226,-112.190735
Grand Canyon University,104717,33.513231,-112.129929
GateWay Community College,105145,33.449686,-111.997077
Mesa Community College,105154,33.390323,-111.871255
Mohave Community College,105206,35.270996,-114.029838
Universal Technical Institute of Arizona Inc-Motorcycle Mechanics Institute Division,105215,33.684428,-112.121336
Dine College,105297,36.293328,-109.21684
Northern Arizona University,105330,35.188449,-111.653724
Northland Pioneer College,105349,34.93031,-110.142199
Ottawa University-Phoenix,105367,33.572173,-112.113001
Phoenix College,105428,33.481361,-112.088293
Pima Community College,105525,32.222125,-110.886659
Pima Medical Institute-Tucson,105534,32.248067,-110.878783
Pima Medical Institute-Albuquerque,105543,35.104855,-106.59488
Prescott College,105589,34.5452,-112.477185
Refrigeration School Inc,105659,33.448692,-111.989357
Rio Salado College,105668,33.413309,-111.97417
Roberto-Venn School of Luthiery,105677,33.45489,-112.086161
Scottsdale Community College,105747,33.51135,-111.885186
South Mountain Community College,105792,33.382406,-112.032635
Arizona Christian University,105899,33.622952,-112.181776
Universal Technical Institute of Arizona Inc,106041,33.453005,-112.288123
Yavapai College,106148,34.547495,-112.453395
University of Arkansas at Little Rock,106245,34.723254,-92.339778
University of Arkansas for Medical Sciences,106263,34.749048,-92.320046
Arkansas Baptist College,106306,34.734751,-92.290555
Arkansas Beauty School-Little Rock,106315,34.672171,-92.343366
Arkansas Beauty College,106324,35.27902,-93.135369
Lyon College,106342,35.777619,-91.625354
Arkansas Technical School,106351,34.753843,-92.266429
Arthur's Beauty College,106360,35.379955,-94.410967
University of Arkansas,106397,36.070009,-94.176981
University of Arkansas at Pine Bluff,106412,34.244031,-92.018683
Arkansas State University-Beebe,106449,35.074176,-91.895351
Arkansas State University,106458,35.842388,-90.679988
Arkansas Tech University,106467,35.293237,-93.13562
University of Arkansas at Monticello,106485,33.590909,-91.811153
Baptist Health College Little Rock,106546,34.713115,-92.40692
Black River Technical College,106625,36.239793,-90.951033
University of Central Arkansas,106704,35.077945,-92.457672
Central Baptist College,106713,35.083838,-92.445021
Cossatot Community College of the University of Arkansas,106795,34.043389,-94.3673
Crowley's Ridge College,106810,36.064845,-90.584395
East Arkansas Community College,106883,35.041655,-90.767726
Eastern College of Health Vocations-Little Rock,106892,34.75128,-92.341891
Paul Mitchell the School-Little Rock,106908,34.789913,-92.222202
National Park College,106980,34.512687,-93.119248
University of Arkansas Community College-Batesville,106999,35.792923,-91.615852
Harding University,107044,35.247386,-91.726143
Henderson State University,107071,34.128155,-93.059703
Hendrix College,107080,35.101565,-92.443256
Hot Springs Beauty College,107099,34.496057,-93.037277
Jefferson Regional School of Nursing,107123,34.187831,-92.018045
John Brown University,107141,36.189812,-94.560283
Career Academy of Hair Design,107220,36.167605,-94.12947
Academy of Salon and Spa,107293,35.38097,-94.41616
Arkansas State University Mid-South,107318,35.145736,-90.22285
Arkansas Northeastern College,107327,35.898597,-89.921005
New Tyler Barber College Inc,107442,34.760085,-92.254171
North Arkansas College,107460,36.219909,-93.08844
Northwest Technical Institute,107488,36.178032,-94.115346
Ouachita Baptist University,107512,34.126093,-93.052471
Arkansas State University Three Rivers,107521,34.378745,-92.821416
Ozarka College,107549,36.053031,-91.896355
University of the Ozarks,107558,35.476278,-93.467221
University of Arkansas Community College-Morrilton,107585,35.172136,-92.728507
Philander Smith College,107600,34.737131,-92.283015
Phillips Community College of the University of Arkansas,107619,34.546155,-90.616884
Southeast Arkansas College,107637,34.210309,-92.025936
Professional Cosmetology Education Center,107655,33.216032,-92.664101
University of Arkansas-Pulaski Technical College,107664,34.782783,-92.299184
University of Arkansas Hope-Texarkana,107725,33.641665,-93.596762
University of Arkansas Community College Rich Mountain,107743,34.591449,-94.219799
Paul Mitchell the School-Arkansas,107789,36.126373,-94.153892
Searcy Beauty College,107831,35.239148,-91.735135
Shorter College,107840,34.75933,-92.261331
Williams Baptist University,107877,36.125676,-90.940277
South Arkansas Community College,107974,33.209446,-92.666087
Southern Arkansas University Main Campus,107983,33.291618,-93.235922
Southern Arkansas University Tech,107992,33.628367,-92.721629
Velvatex College of Beauty Culture,108065,34.735685,-92.289597
University of Arkansas-Fort Smith,108092,35.384184,-94.373729
Academy of Art University,108232,37.787943,-122.400578
Academy of Chinese Culture and Health Sciences,108269,37.805972,-122.269839
College of Alameda,108667,37.781017,-122.279303
Allan Hancock College,108807,34.943716,-120.421144
American Academy of Dramatic Arts-Los Angeles,108852,34.095378,-118.343701
Berkeley School of Theology,108861,37.865252,-122.256149
American Film Institute Conservatory,108870,34.10767,-118.310018
American Beauty College,108977,34.069367,-117.936959
American Career College-Los Angeles,109040,34.079323,-118.292481
American Conservatory Theater,109086,37.786923,-122.410265
American River College,109208,38.65085,-121.349672
Antelope Valley Community College District,109350,34.676207,-118.186166
Art Center College of Design,109651,34.169031,-118.185102
Associated Technical College-Los Angeles,109721,34.056102,-118.272364
Associated Technical College-San Diego,109730,32.773178,-117.135196
Azusa Pacific University,109785,34.130047,-117.888375
Bakersfield College,109819,35.40911,-118.973753
Barstow Community College,109907,34.870285,-117.023412
Bellus Academy-Chula Vista,109934,32.614773,-117.083738
Bethesda University,110060,33.842295,-117.941323
Biola University,110097,33.906203,-118.014374
Brownson Technical School,110194,33.819032,-117.905774
Bryan University,110219,33.437779,-111.944197
Butte College,110246,39.649782,-121.644831
California Institute of Integral Studies,110316,37.774924,-122.416102
Cabrillo College,110334,36.989448,-121.924797
California Baptist University,110361,33.929321,-117.425619
California College of the Arts,110370,37.767485,-122.399451
University of California-Hastings College of Law,110398,37.781137,-122.4157
California Institute of Technology,110404,34.137349,-118.125878
California Lutheran University,110413,34.224566,-118.878924
California Polytechnic State University-San Luis Obispo,110422,35.299513,-120.657311
Alliant International University-San Diego,110468,32.897056,-117.094398
California State University-Bakersfield,110486,35.350005,-119.104711
California State University-Stanislaus,110495,37.52577,-120.852511
California State University-San Bernardino,110510,34.182622,-117.323801
California State Polytechnic University-Pomona,110529,34.057912,-117.821476
California State University-Chico,110538,39.729712,-121.844859
California State University-Dominguez Hills,110547,33.864766,-118.255917
California State University-Fresno,110556,36.811154,-119.744569
California State University-Fullerton,110565,33.881506,-117.885446
California State University-East Bay,110574,37.657694,-122.054135
California State University-Long Beach,110583,33.782818,-118.11204
California State University-Los Angeles,110592,34.066927,-118.168965
California State University-Northridge,110608,34.240126,-118.529319
California State University-Sacramento,110617,38.559415,-121.423549
University of California-Berkeley,110635,37.871918,-122.260463
University of California-Davis,110644,38.539667,-121.749567
University of California-Irvine,110653,33.648434,-117.841248
University of California-Los Angeles,110662,34.07178,-118.442179
University of California-Riverside,110671,33.97246,-117.32741
University of California-San Diego,110680,32.877749,-117.235866
University of California-San Francisco,110699,37.763737,-122.458489
University of California-Santa Barbara,110705,34.416297,-119.846426
University of California-Santa Cruz,110714,36.995584,-122.058801
Sofia University,110778,37.430325,-122.10866
California Beauty School,110875,37.645217,-120.99689
California Christian College,110918,36.749366,-119.711123
Haven University,111045,33.777392,-117.939412
California Hair Design Academy,111054,32.765221,-117.024261
California Institute of the Arts,111081,34.39327,-118.566837
California State University Maritime Academy,111188,38.069061,-122.231551
California Western School of Law,111391,32.722192,-117.162416
Canada College,111434,37.44877,-122.265398
College of the Canyons,111461,34.403993,-118.568698
Career Academy of Beauty,111513,33.781018,-118.031697
Casa Loma College-Los Angeles,111638,34.192829,-118.457781
CET-San Diego,111708,32.711302,-117.105328
CET-San Jose,111717,37.322723,-121.88698
CET-El Centro,111726,32.790908,-115.549079
CET-Colton,111744,34.077381,-117.353488
CET-Watsonville,111762,36.931833,-121.767991
CET-Salinas,111799,36.707333,-121.65236
Cerritos College,111887,33.886874,-118.097337
Cerro Coso Community College,111896,35.567525,-117.66767
Chabot College,111920,37.642458,-122.105636
Chaffey College,111939,34.147663,-117.573932
Chapman University,111948,33.79302,-117.852518
Charles R Drew University of Medicine and Science,111966,33.925658,-118.242791
Concordia University-Irvine,112075,33.653665,-117.812305
San Diego Christian College,112084,32.842404,-116.978112
Church Divinity School of the Pacific,112127,37.876184,-122.261122
Citrus College,112172,34.13537,-117.886469
Citrus Heights Beauty College,112181,38.712951,-121.289529
City College of San Francisco,112190,37.725953,-122.451155
Claremont Graduate University,112251,34.103585,-117.713703
Claremont McKenna College,112260,34.102154,-117.711188
Milan Institute-Visalia,112288,36.27164,-119.312151
Clovis Adult Education,112367,36.834459,-119.690369
Coastline Community College,112385,33.715634,-117.929143
University of Silicon Valley,112394,37.414049,-121.94087
Coba Academy,112455,33.841141,-117.943108
Western University of Health Sciences,112525,34.058092,-117.747732
Columbia College,112561,38.030367,-120.388385
Columbia College Hollywood,112570,34.17972,-118.538793
Compton College,112686,33.878226,-118.209463
Contra Costa College,112826,37.969381,-122.337377
Cosumnes River College,113096,38.45295,-121.423108
Crafton Hills College,113111,34.039178,-117.101173
Cuesta College,113193,35.331276,-120.742235
Cuyamaca College,113218,32.744954,-116.943507
Cypress College,113236,33.82833,-118.025143
De Anza College,113333,37.319914,-122.045783
International School of Beauty Inc,113449,33.729555,-116.403928
Dell'Arte International School of Physical Theatre,113537,40.880924,-123.988808
College of the Desert,113573,33.732108,-116.388271
Design Institute of San Diego,113582,32.880926,-117.167374
Diablo Valley College,113634,37.968516,-122.073142
Dominican University of California,113698,37.981279,-122.512051
Dominican School of Philosophy & Theology,113704,37.881099,-122.264612
East Los Angeles College,113856,34.040531,-118.148785
El Camino Community College District,113980,33.885229,-118.329913
Emperor's College of Traditional Oriental Medicine,114114,34.030438,-118.485119
Empire College,114123,38.468052,-122.729337
Evergreen Valley College,114266,37.30167,-121.76561
FIDM-Fashion Institute of Design & Merchandising,114354,34.044209,-118.25993
Feather River Community College District,114433,39.953101,-120.973067
Federico Beauty Institute,114460,38.64883,-121.497761
Fielding Graduate University,114549,34.42941,-119.717161
Five Branches University,114585,36.964348,-121.998245
Redondo Beach Beauty College,114637,33.873098,-118.372137
Foothill College,114716,37.361655,-122.127964
Franciscan School of Theology,114734,32.770816,-117.192073
Fredrick and Charles Beauty College,114761,40.798885,-124.164986
Fresno City College,114789,36.768164,-119.796096
Fresno Pacific University,114813,36.726831,-119.735199
Fuller Theological Seminary,114840,34.14778,-118.140261
Fullerton College,114859,33.875514,-117.918255
Gavilan College,114938,36.972627,-121.569842
Gemological Institute of America-Carlsbad,114947,33.131313,-117.318765
Glendale Career College,115010,34.149771,-118.254719
Golden Gate University,115083,37.789374,-122.398969
Golden West College,115126,33.732531,-118.002568
Graduate Theological Union,115214,37.87554,-122.261847
Grossmont College,115296,32.815246,-117.006277
Salon Success Academy-Riverside,115357,33.943149,-117.391024
Hartnell College,115393,36.675091,-121.666054
Harvey Mudd College,115409,34.106515,-117.709837
Hilltop Beauty School,115658,37.705502,-122.461467
Holy Names University,115728,37.802276,-122.187804
Pacifica Graduate Institute,115746,34.420881,-119.580414
California State Polytechnic University-Humboldt,115755,40.877481,-124.078293
Humphreys University-Stockton and Modesto Campuses,115773,38.011489,-121.316918
Imperial Valley College,115861,32.827209,-115.503563
Institute for Business and Technology,115931,37.368642,-121.969541
Interior Designers Institute,116226,33.641393,-117.865722
International School of Cosmetology,116350,34.080053,-118.361176
Irvine Valley College,116439,33.675381,-117.777539
Bellus Academy-El Cajon,116563,32.794072,-116.94627
American Jewish University,116846,34.128153,-118.471706
Reedley College,117052,36.605428,-119.458555
Life Pacific University,117104,34.098705,-117.829388
University of La Verne,117140,34.100855,-117.773262
Laguna College of Art and Design,117168,33.561448,-117.772564
Lake Tahoe Community College,117195,38.926797,-119.972574
Lancaster Beauty School,117238,34.694914,-118.147547
Laney College,117247,37.797257,-122.26283
Lassen Community College,117274,40.432053,-120.633271
Latin American Bible Institute,117283,34.030992,-117.989601
Life Chiropractic College West,117520,37.638099,-122.117619
Lincoln University,117557,37.804788,-122.269745
Southern California Seminary,117575,32.799614,-116.905461
La Sierra University,117627,33.910704,-117.500054
Loma Linda University,117636,34.051241,-117.260605
Long Beach City College,117645,33.833593,-118.135633
Southern California University of Health Sciences,117672,33.922966,-117.983401
Los Angeles Harbor College,117690,33.785825,-118.283549
Los Angeles Pierce College,117706,34.183949,-118.575071
Los Angeles Southwest College,117715,33.929586,-118.304674
Los Angeles Trade Technical College,117724,34.031907,-118.269447
Los Angeles Valley College,117733,34.175165,-118.421734
The Master's University and Seminary,117751,34.381755,-118.518193
Los Angeles City College,117788,34.087301,-118.292169
Los Angeles County College of Nursing and Allied Health,117803,34.062647,-118.211852
Los Angeles Mission College,117867,34.314668,-118.4195
Los Medanos College,117894,38.006474,-121.860967
Loyola Marymount University,117946,33.97085,-118.415744
Lu Ross Academy,117955,34.278034,-119.293952
Lyle's College of Beauty,118134,35.386539,-119.02387
Lyle's College of  Beauty,118143,36.836265,-119.774167
Lytles Redwood Empire Beauty College,118161,38.508385,-122.75777
MTI College,118198,38.661377,-121.342568
College of Marin,118347,37.954897,-122.549149
Marymount California University,118541,33.734887,-118.333371
Mendocino College,118684,39.188989,-123.228809
Menlo College,118693,37.453475,-122.190797
Merced College,118718,37.3353,-120.476464
Merritt College,118772,37.789088,-122.167335
Mills College,118888,37.781425,-122.182294
MiraCosta College,118912,33.190483,-117.302606
Mission College,118930,37.391935,-121.980783
Modern Beauty Academy,118958,34.195384,-119.181423
Modesto Junior College,118976,37.651056,-121.009792
Moler Barber College,118994,37.827075,-122.265352
Middlebury Institute of International Studies at Monterey,119058,36.599736,-121.897325
Monterey Peninsula College,119067,36.590558,-121.884931
Moorpark College,119137,34.301146,-118.834528
Mt San Antonio College,119164,34.047764,-117.846629
Mount Saint Mary's University,119173,34.085315,-118.482879
Mt San Jacinto Community College District,119216,33.806748,-116.971169
Musicians Institute,119270,34.101265,-118.337582
Napa Valley College,119331,38.274081,-122.274381
National Holistic Institute,119553,37.841898,-122.287672
National University,119605,32.909894,-117.243026
Naval Postgraduate School,119678,36.597159,-121.874248
Newschool of Architecture and Design,119775,32.71331,-117.153305
North Adrian's College of Beauty Inc,119951,37.677778,-120.992753
North-West College-Pomona,120069,34.062043,-117.751227
North-West College-West Covina,120078,34.072071,-117.949583
North-West College-Van Nuys,120087,34.189497,-118.450184
San Francisco Bay University,120166,37.477991,-121.925953
Notre Dame de Namur University,120184,37.517111,-122.284794
Occidental College,120254,34.127124,-118.210908
Ohlone College,120290,37.52773,-121.916339
Orange Coast College,120342,33.66927,-117.909086
Otis College of Art and Design,120403,33.956607,-118.416615
Oxnard College,120421,34.166104,-119.157604
Hope International University,120537,33.87616,-117.88573
Concorde Career College-San Diego,120661,32.702814,-117.102845
Palo Alto University,120698,37.382216,-122.187437
Pacific Oaks College,120768,34.153382,-118.151323
Pacific School of Religion,120795,37.87669,-122.263155
Pacific States University,120838,34.061315,-118.298408
Pacific Union College,120865,38.570585,-122.440308
University of the Pacific,120883,37.981424,-121.312301
Palo Verde College,120953,33.661538,-114.651698
Palomar College,120971,33.149483,-117.183978
Pasadena City College,121044,34.144552,-118.118196
Pepperdine University,121150,34.037786,-118.707077
Pitzer College,121257,34.104107,-117.706675
Platt College-San Diego,121275,32.76373,-117.063483
Point Loma Nazarene University,121309,32.718391,-117.250265
Pomona College,121345,34.099027,-117.714556
Porterville College,121363,36.049256,-119.014368
Professional Institute of Beauty,121433,34.075561,-118.039028
Santa Ana College,121619,33.759309,-117.887558
Pardee RAND Graduate School,121628,34.00973,-118.490655
Shasta School of Cosmetology,121637,40.597114,-122.387248
University of Redlands,121691,34.064218,-117.163218
College of the Redwoods,121707,40.698427,-124.195293
Salon Success Academy-Upland,121859,34.108247,-117.631783
Salon Success Academy-Corona,121868,33.847649,-117.535638
Rio Hondo College,121886,34.019821,-118.033506
Riverside City College,121901,33.970918,-117.384323
Dongguk University Los Angeles,122117,34.06597,-118.289523
Sacramento City College,122180,38.541096,-121.491139
Saddleback College,122205,33.553346,-117.665584
Samuel Merritt University,122296,37.82029,-122.266331
San Diego City College,122339,32.717403,-117.152733
San Diego Mesa College,122375,32.803825,-117.169165
San Diego Miramar College,122384,32.909757,-117.120261
San Diego State University,122409,32.77525,-117.071228
University of San Diego,122436,32.770816,-117.192073
San Francisco Art Institute,122454,37.803575,-122.417
San Francisco Conservatory of Music,122506,37.775543,-122.420292
San Francisco State University,122597,37.721224,-122.476799
University of San Francisco,122612,37.776618,-122.450477
San Joaquin College of Law,122649,36.82448,-119.697657
San Joaquin Delta College,122658,37.995562,-121.317597
San Joaquin Valley College-Visalia,122685,36.328049,-119.384981
San Joaquin Valley College-Bakersfield,122694,35.352848,-119.062071
William Jessup University,122728,38.819728,-121.292312
San Jose City College,122746,37.315827,-121.926185
San Jose State University,122755,37.336569,-121.880621
College of San Mateo,122791,37.535698,-122.334801
Santa Barbara Business College-Bakersfield,122834,35.359544,-119.061264
Santa Barbara City College,122889,34.406788,-119.698045
Santa Clara University,122931,37.348362,-121.93784
Santa Monica College,122977,34.017022,-118.469765
Santa Rosa Junior College,123013,38.45709,-122.718974
Saybrook University,123095,34.153103,-118.152155
Scripps College,123165,34.104147,-117.711294
College of the Sequoias,123217,36.323877,-119.315182
Shasta Bible College and Graduate School,123280,40.566034,-122.314419
Shasta College,123299,40.625731,-122.317982
Sierra College,123341,38.790773,-121.211688
Sierra College of Beauty,123350,37.306975,-120.495874
Trinity Law School,123448,33.766071,-117.852059
Simpson University,123457,40.61334,-122.332981
College of the Siskiyous,123484,41.413005,-122.38909
Charles A Jones Career and Education Center,123493,38.516233,-121.440796
Skyline College,123509,37.63042,-122.467335
San Bernardino Valley College,123527,34.086353,-117.313248
Saint Mary's College of California,123554,37.840731,-122.109031
Solano Community College,123563,38.235881,-122.122368
Sonoma State University,123572,38.340274,-122.677066
South Baylo University,123633,33.848291,-117.958416
South Coast College,123642,33.78818,-117.874031
Vanguard University of Southern California,123651,33.662686,-117.900911
Concorde Career College-Garden Grove,123679,33.774741,-117.938395
Southwestern College,123800,32.640281,-116.996803
Starr King School for the Ministry,123916,37.781425,-122.182294
Marshall B Ketchum University,123943,33.889348,-117.886229
Southern California Institute of Architecture,123952,34.044215,-118.232799
University of Southern California,123961,34.021281,-118.284169
Southwestern Law School,123970,34.061558,-118.288375
Taft College,124113,35.149343,-119.459751
Claremont School of Theology,124283,34.107602,-117.715256
Thomas Aquinas College,124292,34.429009,-119.087141
Epic Bible College & Graduate School,124487,38.645152,-121.362642
UEI College-Huntington Park,124681,33.986057,-118.226206
Concorde Career College-San Bernardino,124706,34.066823,-117.283995
Concorde Career College-North Hollywood,124937,34.186407,-118.403627
Ventura College,125028,34.277393,-119.230604
The Santa Barbara and Ventura Colleges of Law at Ventura,125037,34.25747,-119.232988
Bridges Beauty College,125082,34.528602,-117.303933
Victor Valley College,125091,34.472231,-117.261456
Berkeley City College,125170,37.869769,-122.269877
Walden University,125231,44.98125,-93.265738
Waynes College of Beauty,125310,36.700635,-121.652672
West Hills College-Coalinga,125462,36.147891,-120.356747
West Los Angeles College,125471,34.004512,-118.386664
West Valley College,125499,37.26398,-122.008324
Carrington College-Sacramento,125532,38.556151,-121.371331
Westminster Theological Seminary in California,125718,33.121447,-117.046371
Westmont College,125727,34.450151,-119.662517
Whittier College,125763,33.978773,-118.032299
Woodbury University,125897,34.208011,-118.341147
The Wright Institute,126012,37.868221,-122.253168
Thomas Jefferson School of Law,126049,32.717595,-117.157862
Yeshiva Ohr Elchonon Chabad West Coast Talmudical Seminary,126076,34.085465,-118.346613
Yuba College,126119,39.126536,-121.53964
The Salon Professional Academy-Grand Junction,126164,39.078114,-108.56521
Adams State University,126182,37.473636,-105.879642
Aims Community College,126207,40.409559,-104.763415
Arapahoe Community College,126289,39.607505,-105.018631
Bel-Rea Institute of Animal Technology,126359,39.686194,-104.876207
University of Colorado Denver/Anschutz Medical Campus,126562,39.745149,-104.837722
University of Colorado Colorado Springs,126580,38.892735,-104.800296
Spartan College of Aeronautics and Technology,126605,39.914822,-105.119096
University of Colorado Boulder,126614,40.008781,-105.270823
Colorado Christian University,126669,39.71388,-105.09456
Colorado College,126678,38.84886,-104.822697
Concorde Career College-Aurora,126687,39.718699,-104.867089
Colorado Mountain College,126711,39.54636,-107.324441
Colorado Northwestern Community College,126748,40.081112,-108.790048
Colorado School of Mines,126775,39.751443,-105.223364
Colorado School of Trades,126784,39.74181,-105.104174
Colorado State University-Fort Collins,126818,40.574805,-105.080732
Colorado Technical University-Colorado Springs,126827,38.894265,-104.833928
Community College of Aurora,126863,39.71788,-104.802673
Technical College of the Rockies,126915,38.702524,-108.031072
Community College of Denver,126942,39.741413,-105.001044
Lincoln College of Technology-Denver,126951,39.77651,-104.856171
Denver Seminary,126979,39.600595,-105.022363
University of Denver,127060,39.678005,-104.963259
Emily Griffith Technical College,127158,39.74575,-104.985751
Fort Lewis College,127185,37.275939,-107.867422
Front Range Community College,127200,39.901452,-105.038068
Iliff School of Theology,127273,39.675927,-104.960657
International Salon and Spa Academy,127316,38.913621,-104.786252
Lamar Community College,127389,38.068886,-102.616144
Colorado Mesa University,127556,39.080643,-108.553275
Metropolitan State University of Denver,127565,39.744202,-105.00504
Morgan Community College,127617,40.258792,-103.771822
Naropa University,127653,40.014235,-105.266987
Nazarene Bible College,127714,38.944824,-104.803251
Northeastern Junior College,127732,40.637215,-103.197329
University of Northern Colorado,127741,40.410855,-104.692777
Otero College,127778,37.969984,-103.544874
Pikes Peak State College,127820,38.764287,-104.787261
Pueblo Community College,127884,38.262124,-104.636258
Red Rocks Community College,127909,39.720277,-105.150094
Regis University,127918,39.788175,-105.030756
Rocky Mountain College of Art and Design,127945,39.74332,-105.069911
Montessori Education Center of the Rockies,127954,40.019673,-105.241331
Colorado State University Pueblo,128106,38.30859,-104.579033
Pickens Technical College,128151,39.723705,-104.789683
Intellitec College-Colorado Springs,128179,38.832183,-104.78721
Intellitec College-Grand Junction,128188,39.116346,-108.53062
Trinidad State College,128258,37.172059,-104.513451
United States Air Force Academy,128328,39.010957,-104.891358
Empire Beauty School-Thornton,128337,39.915253,-104.94357
Western Colorado University,128391,38.549936,-106.919132
Albertus Magnus College,128498,41.332519,-72.923848
Asnuntuck Community College,128577,41.998409,-72.570177
Bais Binyomin Academy,128586,41.123013,-74.078802
University of Bridgeport,128744,41.164741,-73.190166
Central Connecticut State University,128771,41.692502,-72.765991
Charter Oak State College,128780,41.688246,-72.767972
Cortiva Institute,128896,41.604041,-72.678562
Connecticut College,128902,41.379833,-72.107321
Porter & Chester Institute of Hamden,129002,41.346568,-72.931908
University of Connecticut,129020,41.809098,-72.249948
Goodwin University,129154,41.742977,-72.64032
Lincoln Technical Institute-East Windsor,129181,41.924248,-72.596915
Eastern Connecticut State University,129215,41.721673,-72.218753
Fairfield University,129242,41.157673,-73.255903
Paul Mitchell the School-North Haven,129349,41.394495,-72.85745
Capital Community College,129367,41.768397,-72.672734
Rensselaer at Hartford,129428,41.773462,-72.673916
American Institute-West Hartford,129482,41.727016,-72.725762
Hartford International University for Religion and Peace,129491,41.769861,-72.707766
University of Hartford,129525,41.798591,-72.715213
Holy Apostles College and Seminary,129534,41.60682,-72.647853
Housatonic Community College,129543,41.175228,-73.191003
Manchester Community College,129695,41.761625,-72.561939
Naugatuck Valley Community College,129729,41.549749,-73.072963
Middlesex Community College,129756,41.539516,-72.611838
Mitchell College,129774,41.328013,-72.09523
Three Rivers Community College,129808,41.509945,-72.103039
Lincoln Technical Institute-New Britain,129923,41.659236,-72.754498
New England Tractor Trailer Training School of Connecticut,129932,41.979699,-72.450218
University of New Haven,129941,41.291314,-72.961472
Norwalk Community College,130004,41.102574,-73.450965
Northwestern Connecticut Community College,130040,41.920668,-73.058734
Paier College,130110,41.347714,-72.935048
Porter & Chester Institute,130174,41.169646,-73.149023
Post University,130183,41.535549,-73.081497
Quinebaug Valley Community College,130217,41.82623,-71.889673
Quinnipiac University,130226,41.418915,-72.894117
Sacred Heart University,130253,41.220893,-73.243332
University of Saint Joseph,130314,41.781041,-72.72965
Gateway Community College,130396,41.303785,-72.927682
Southern Connecticut State University,130493,41.333225,-72.947897
Stone Academy-West Haven,130509,41.267503,-72.976966
Trinity College,130590,41.747451,-72.690882
Tunxis Community College,130606,41.705498,-72.87754
United States Coast Guard Academy,130624,41.375823,-72.101583
Wesleyan University,130697,41.554665,-72.657146
Western Connecticut State University,130776,41.400365,-73.444264
Yale University,130794,41.311158,-72.926688
Margaret H Rollins School of Nursing at Beebe Medical Center,130837,38.771565,-75.142864
Dawn Career Institute LLC,130873,39.668605,-75.677768
Delaware Technical Community College-Terry,130907,39.198371,-75.56012
Delaware State University,130934,39.187173,-75.54053
University of Delaware,130943,39.679577,-75.752822
Goldey-Beacom College,130989,39.741501,-75.689624
Schilling-Douglas School of Hair Design LLC,131061,39.711442,-75.74178
Wilmington University,131113,39.682299,-75.586998
American University,131159,38.936005,-77.088875
The Catholic University of America,131283,38.933651,-76.997909
University of the District of Columbia,131399,38.943819,-77.066247
Pontifical Faculty of the Immaculate Conception at the Dominican House of Studies,131405,38.931652,-76.998724
Gallaudet University,131450,38.907371,-76.993675
George Washington University,131469,38.89923,-77.048363
Georgetown University,131496,38.908809,-77.073463
Howard University,131520,38.922392,-77.018966
Strayer University-District of Columbia,131803,38.904881,-77.034133
National Conservatory of Dramatic Arts,131830,38.910024,-77.065095
Trinity Washington University,131876,38.927398,-77.004261
Wesley Theological Seminary,131973,38.939606,-77.08996
Atlantic Technical College,132374,26.24278,-80.192271
The Baptist College of Florida,132408,30.962708,-85.503931
Barry University,132471,25.878908,-80.198925
Bethune-Cookman University,132602,29.207195,-81.032946
Lynn University,132657,26.385985,-80.122806
North Florida Technical College,132675,29.952308,-82.117224
Eastern Florida State College,132693,28.38361,-80.756474
Broward College,132709,26.119422,-80.14183
Albizu University-Miami,132842,25.794178,-80.356315
College of Central Florida,132851,29.166079,-82.175692
Johnson University Florida,132879,28.302547,-81.363053
University of Central Florida,132903,28.602159,-81.200889
Charlotte Technical College,132976,27.005558,-82.147238
Chipola College,133021,30.789228,-85.23139
Lorenzo Walker Technical College,133155,26.141141,-81.763568
Daytona State College,133386,29.203275,-81.049685
South University-West Palm Beach,133465,26.69215,-80.200219
Eckerd College,133492,27.715798,-82.687043
Florida SouthWestern State College,133508,26.552403,-81.887102
Edward Waters University,133526,30.34479,-81.684879
Embry-Riddle Aeronautical University-Daytona Beach,133553,29.189903,-81.048367
Florida Agricultural and Mechanical University,133650,30.428504,-84.290226
Florida Atlantic University,133669,26.372421,-80.102978
Florida State College at Jacksonville,133702,30.334918,-81.659901
Flagler College,133711,29.892733,-81.314887
Florida College,133809,28.034936,-82.383289
Concorde Career Institute-Jacksonville,133845,30.23886,-81.581748
Concorde Career Institute-Miramar,133854,25.977088,-80.291516
Concorde Career Institute-Tampa,133863,27.959148,-82.514341
AdventHealth University,133872,28.576142,-81.367687
Florida Institute of Technology,133881,28.065815,-80.622893
Florida Institute of Ultrasound Inc,133942,30.524582,-87.220895
Florida International University,133951,25.75732,-80.373928
The College of the Florida Keys,133960,24.582748,-81.74446
Florida Memorial University,133979,25.918278,-80.270753
Florida Career College-Miami,133997,25.756567,-80.36778
Florida School of Massage,134024,29.593428,-82.338273
Florida Southern College,134079,28.032443,-81.948203
Florida State University,134097,30.440756,-84.291921
University of Florida,134130,29.64629,-82.347911
Fort Pierce Beauty Academy,134228,27.411962,-80.325377
Full Sail University,134237,28.596546,-81.301286
George Stone Technical College,134291,30.487547,-87.290659
George T Baker Aviation Technical College,134307,25.804092,-80.263591
Gulf Coast State College,134343,30.185542,-85.727918
Key College,134422,26.13887,-80.114462
Hillsborough Community College,134495,27.934888,-82.456253
Hobe Sound Bible College,134510,27.066304,-80.13184
Hollywood Institute of Beauty Careers,134529,26.007139,-80.209125
Indian River State College,134608,27.42416,-80.358682
International Academy,134714,29.162159,-80.997811
AI Miami International University of Art and Design,134811,25.790008,-80.18839
Jacksonville University,134945,30.353227,-81.60458
Keiser University-Ft Lauderdale,135081,26.185869,-80.163959
La Belle Beauty School,135142,25.86695,-80.312711
Florida Gateway College,135160,30.175298,-82.5679
Lake Technical College,135179,28.833446,-81.690874
Lake-Sumter State College,135188,28.828649,-81.797193
Fort Myers Technical College,135267,26.647517,-81.836596
Lively Technical College,135276,30.448534,-84.339057
Lindsey Hopkins Technical College,135294,25.794676,-80.208154
Loraines Academy & Spa,135337,27.783077,-82.713964
Luther Rice College & Seminary,135364,33.698126,-84.123179
State College of Florida-Manatee-Sarasota,135391,27.43804,-82.590887
Manatee Technical College,135407,27.447894,-82.481088
Traviss Technical College,135522,27.995822,-81.892381
Merryfield School of Pet Grooming,135559,26.19044,-80.129991
Trinity International University-Florida,135610,25.68307,-80.417646
Miami Lakes Educational Center and Technical College,135647,25.916128,-80.29513
Miami Dade College,135717,25.777717,-80.190856
University of Miami,135726,25.72126,-80.278662
Orange Technical College-Mid Florida Campus,135735,28.471695,-81.415996
Paul Mitchell the School-Jacksonville,136109,30.259433,-81.527515
North Florida College,136145,30.473841,-83.420732
University of North Florida,136172,30.27194,-81.509144
Nova Southeastern University,136215,26.079337,-80.24248
Northwest Florida State College,136233,30.540017,-86.47456
Orange Technical College,136303,28.550422,-81.383783
Palm Beach Atlantic University,136330,26.7044,-80.05247
Palm Beach State College,136358,26.61256,-80.08653
Pasco-Hernando State College,136400,28.2751,-82.646727
Pensacola State College,136473,30.479267,-87.200265
Pinellas Technical College-Clearwater,136491,27.911922,-82.719064
Polk State College,136516,28.032411,-81.711873
Radford M Locklin Technical College,136659,30.648077,-87.09971
Saint Vincent de Paul Regional Seminary,136701,26.516538,-80.125185
Ridge Technical College,136765,28.076632,-81.654463
Ringling College of Art and Design,136774,27.360931,-82.547803
Robert Morgan Educational Center and Technical College,136826,25.599247,-80.390054
Rollins College,136950,28.592787,-81.349239
First Coast Technical College,137023,29.924377,-81.345829
Saint Leo University,137032,28.336776,-82.257801
St Petersburg College,137078,27.90242,-82.717331
Pinellas Technical College-St. Petersburg,137087,27.761183,-82.681534
Santa Fe College,137096,29.681037,-82.433143
Suncoast Technical College,137120,27.285486,-82.500827
Seminole State College of Florida,137209,28.745482,-81.308003
Sheridan Technical College,137245,26.031736,-80.198024
St. John Vianney College Seminary,137272,25.742579,-80.337411
Saint Johns River State College,137281,29.647516,-81.681387
South Florida State College,137315,27.56974,-81.508667
University of South Florida,137351,28.061458,-82.413232
St. Thomas University,137476,25.922071,-80.253273
Stetson University,137546,29.035475,-81.300746
Southeastern University,137564,28.029733,-81.918382
Bene's Career Academy,137591,28.259612,-82.728584
Riveroak Technical College,137713,30.281999,-82.992512
Tallahassee Community College,137759,30.443866,-84.339
Talmudic College of Florida,137777,25.811996,-80.136293
Altierus Career College-Tampa,137801,27.996582,-82.497616
The University of Tampa,137847,27.948455,-82.46483
Big Bend Technical College,137856,30.077954,-83.565783
Tom P. Haney Technical College,137865,30.203363,-85.646585
Trinity Baptist College,137953,30.311171,-81.79626
Trinity College of Florida,137962,28.194732,-82.678318
Valencia College,138187,28.520898,-81.471466
Warner University,138275,27.825751,-81.599972
Florida Panhandle Technical College,138284,30.77449,-85.553345
Webber International University,138293,27.838778,-81.532315
Rasmussen University-Florida,138309,29.140099,-82.197343
The University of West Florida,138354,30.549076,-87.218511
Orange Technical College-Westside Campus,138372,28.559574,-81.571532
William T McFatter Technical College,138479,26.085022,-80.232201
Orange Technical College-East Campus,138488,28.604386,-81.36174
Withlacoochee Technical College,138497,28.834861,-82.345563
Abraham Baldwin Agricultural College,138558,31.481889,-83.528281
Agnes Scott College,138600,33.769268,-84.295459
Interactive College of Technology-Chamblee,138655,33.887956,-84.303159
Interactive College of Technology-Morrow,138664,33.57233,-84.336098
Albany Technical College,138682,31.55434,-84.174284
Albany State University,138716,31.56928,-84.141825
Andrew College,138761,31.772321,-84.795021
The Art Institute of Atlanta,138813,33.936024,-84.355252
Georgia Career Institute,138822,33.64336,-84.018321
Atlanta Technical College,138840,33.712009,-84.404995
Point University,138868,32.87912,-85.184931
Atlanta Metropolitan State College,138901,33.70893,-84.404659
Atlanta's John Marshall Law School,138929,33.793394,-84.387898
Atlanta School of Massage,138938,33.922131,-84.311332
Clark Atlanta University,138947,33.747628,-84.412584
Augusta Technical College,138956,33.418992,-82.048439
Berry College,139144,34.290414,-85.189202
Beulah Heights University,139153,33.736993,-84.35768
Brenau University,139199,34.303117,-83.821513
Brewton-Parker College,139205,32.185718,-82.586136
College of Coastal Georgia,139250,31.182745,-81.485973
West Georgia Technical College,139278,33.691657,-85.183666
Clayton  State University,139311,33.594079,-84.328174
Columbia Theological Seminary,139348,33.764292,-84.281695
Columbus Technical College,139357,32.508076,-84.978551
Columbus State University,139366,32.50096,-84.94106
Georgia Northwestern Technical College,139384,34.224673,-85.171361
Covenant College,139393,34.965161,-85.375066
Dalton State College,139463,34.774221,-85.002775
Pro Way Hair School,139506,33.801802,-84.205183
South University-Savannah,139579,31.999571,-81.105435
East Georgia State College,139621,32.594944,-82.309021
Emmanuel College,139630,34.283641,-83.14822
Emory University,139658,33.790183,-84.325512
Georgia Highlands College,139700,34.169791,-85.207356
Fort Valley State University,139719,32.537595,-83.89537
Grady Health System Professional Schools,139746,33.751852,-84.381561
Georgia Institute of Technology-Main Campus,139755,33.77242,-84.394832
Georgia Southwestern State University,139764,32.054662,-84.217738
Georgia College & State University,139861,33.082787,-83.231962
Georgia Southern University,139931,32.426153,-81.784045
Georgia State University,139940,33.7527,-84.38667
University of Georgia,139959,33.956262,-83.374039
Gordon State College,139968,33.04571,-84.154508
Southern Crescent Technical College,139986,33.255438,-84.291662
Gupton Jones College of Funeral Service,139995,33.710709,-84.179775
Gwinnett College-Lilburn,140003,33.901271,-84.121874
Gwinnett Technical College,140012,33.962763,-84.066224
Interdenominational Theological Center,140146,33.752338,-84.409207
LaGrange College,140234,33.038564,-85.043113
Lanier Technical College,140243,34.330323,-83.778107
Life University,140252,33.932781,-84.514729
Chattahoochee Technical College,140331,33.929092,-84.553722
Herzing University-Atlanta,140340,33.754218,-84.387251
Mercer University,140447,32.831787,-83.648295
Morehouse College,140553,33.745982,-84.414917
Morehouse School of Medicine,140562,33.742888,-84.41186
North Georgia Technical College,140678,34.639721,-83.530118
Oglethorpe University,140696,33.875441,-84.333687
Paine College,140720,33.469545,-81.993225
Piedmont University,140818,34.566042,-83.542126
Miami Ad School-Atlanta,140827,33.812116,-84.396182
Reinhardt University,140872,34.319756,-84.554264
Savannah Technical College,140942,32.023211,-81.114753
Savannah College of Art and Design,140951,32.072963,-81.093849
Savannah State University,140960,32.024781,-81.063377
Shorter University,140988,34.257543,-85.196529
South Georgia Technical College,141006,32.116663,-84.188321
The Creative Circus,141015,33.813156,-84.361989
Spelman College,141060,33.745279,-84.411527
Thomas University,141167,30.815576,-83.963587
Toccoa Falls College,141185,34.593414,-83.357617
Truett McConnell University,141237,34.596306,-83.748911
Wiregrass Georgia Technical College,141255,30.889221,-83.35381
Valdosta State University,141264,30.847402,-83.289282
Wesleyan College,141325,32.876037,-83.715417
University of West Georgia,141334,33.573621,-85.097762
Young Harris College,141361,34.933523,-83.84587
Chaminade University of Honolulu,141486,21.28995,-157.807851
University of Hawaii at Hilo,141565,19.701189,-155.080847
University of Hawaii at Manoa,141574,21.298598,-157.818979
Hawaii Institute of Hair Design,141608,21.31146,-157.861609
Hawaii Pacific University,141644,21.310306,-157.859645
Honolulu Community College,141680,21.321785,-157.87
Kapiolani Community College,141796,21.27148,-157.800213
Kauai Community College,141802,21.968887,-159.395883
Leeward Community College,141811,21.39267,-157.983771
University of Hawaii Maui College,141839,20.88956,-156.477252
University of Hawaii-West Oahu,141981,21.35531,-158.056403
Windward Community College,141990,21.407051,-157.813307
Carrington College-Boise,142054,43.615295,-116.260675
Boise Bible College,142090,43.658651,-116.291321
Boise State University,142115,43.604284,-116.203301
College of Eastern Idaho,142179,43.486041,-111.985519
Idaho State University,142276,42.863832,-112.432312
University of Idaho,142285,46.727406,-117.014167
The College of Idaho,142294,43.652284,-116.677992
Lewis-Clark State College,142328,46.412199,-117.024875
Aveda Institute-Twin Falls,142407,42.593567,-114.461545
Mr Leon's School of Hair Design-Moscow,142416,46.729532,-117.001162
North Idaho College,142443,47.67569,-116.798905
Northwest Nazarene University,142461,43.562411,-116.565783
Nathan Layne Institute of Cosmetology,142489,42.919964,-112.464554
Brigham Young University-Idaho,142522,43.818408,-111.782431
College of Southern Idaho,142559,42.579837,-114.473901
Adler University,142832,41.882414,-87.629156
American Academy of Art College,142887,41.87742,-87.624788
American Islamic College,142957,41.954969,-87.646898
School of the Art Institute of Chicago,143048,41.88105,-87.625758
Augustana College,143084,41.502365,-90.55057
Aurora University,143118,41.753631,-88.349023
Southwestern Illinois College,143215,38.516406,-89.924466
Bethany Theological Seminary,143233,39.826244,-84.910689
Black Hawk College,143279,41.477283,-90.447799
Blackburn College,143288,39.287896,-89.870241
Blessing Rieman College of Nursing and Health Sciences,143297,39.949641,-91.357497
Bradley University,143358,40.696896,-89.616786
Paul Mitchell The School Tinley Park,143376,41.172891,-87.847099
Cameo Beauty Academy,143464,41.716051,-87.740894
Cannella School of Hair Design-Villa Park,143473,41.90417,-87.994628
Cannella School of Hair Design-Chicago,143482,41.731381,-87.551622
Capri Beauty College,143552,41.603863,-87.771567
Carl Sandburg College,143613,40.98128,-90.408203
Catholic Theological Union at Chicago,143659,41.797895,-87.585989
Midwestern University-Downers Grove,143853,41.828115,-87.998342
The Chicago School of Professional Psychology at Chicago,143978,41.888293,-87.63379
Chicago State University,144005,41.718446,-87.609384
Chicago Theological Seminary,144014,41.785701,-87.591178
University of Chicago,144050,41.787994,-87.599539
City Colleges of Chicago-Kennedy-King College,144157,41.780253,-87.643425
City Colleges of Chicago-Malcolm X College,144166,41.878092,-87.675321
City Colleges of Chicago-Olive-Harvey College,144175,41.709997,-87.589249
City Colleges of Chicago-Harry S Truman College,144184,41.964502,-87.659107
City Colleges of Chicago-Richard J Daley College,144193,41.755955,-87.723981
City Colleges of Chicago-Harold Washington College,144209,41.886067,-87.626596
City Colleges of Chicago-Wilbur Wright College,144218,41.958774,-87.787868
Columbia College Chicago,144281,41.874261,-87.624667
Concordia University-Chicago,144351,41.898696,-87.809482
Danville Area Community College,144564,40.127539,-87.587884
Tricoci University of Beauty Culture,144573,40.075809,-87.636314
DePaul University,144740,41.877618,-87.62724
Cosmetology & Spa Academy,144795,42.24918,-88.294087
College of DuPage,144865,41.841577,-88.071635
East-West University,144883,41.871309,-87.624793
Eastern Illinois University,144892,39.479843,-88.175658
Elgin Community College,144944,42.018066,-88.32194
Elmhurst University,144962,41.897164,-87.945369
Eureka College,144971,40.71482,-89.269624
First Institute of Travel Inc.,145099,42.21926,-88.339468
Fox College,145239,41.771488,-87.744728
Garrett-Evangelical Theological Seminary,145275,42.056221,-87.675497
Gem City College,145309,39.926394,-91.404218
Governors State University,145336,41.449103,-87.716441
Graham Hospital School of Nursing,145354,40.552962,-90.038776
Greenville University,145372,38.894162,-89.40824
G Skin & Beauty Institute,145406,42.061983,-88.083218
Hair Professionals Career College,145424,41.962221,-88.718145
Hair Professionals School of Cosmetology,145433,41.682591,-88.364727
Hebrew Theological College,145497,42.010103,-87.760874
Highland Community College,145521,42.283344,-89.67342
Rosalind Franklin University of Medicine and Science,145558,42.300069,-87.859632
University of Illinois Chicago,145600,41.871837,-87.650503
Benedictine University,145619,41.777569,-88.097307
Illinois College of Optometry,145628,41.835447,-87.623016
University of Illinois Urbana-Champaign,145637,40.104718,-88.229114
Illinois Wesleyan University,145646,40.489901,-88.992014
Illinois Central College,145682,40.707235,-89.52485
Illinois College,145691,39.7313,-90.246171
Olney Central College,145707,38.735913,-88.099589
Illinois Institute of Technology,145725,41.8313,-87.627321
Illinois State University,145813,40.509403,-88.990058
Illinois Valley Community College,145831,41.30744,-89.100887
Institute for Clinical Social Work,145886,41.972414,-87.662806
John A Logan College,146205,37.747453,-89.09021
John Wood Community College,146278,39.913741,-91.335828
Joliet Junior College,146296,41.500535,-88.180985
Judson University,146339,42.061754,-88.291336
Kankakee Community College,146348,41.098178,-87.851047
Kaskaskia College,146366,38.562112,-89.191974
Kishwaukee College,146418,41.938234,-88.880524
Knox College,146427,40.943064,-90.373165
Educators of Beauty College of Cosmetology-Peru,146454,41.354338,-89.118454
College of Lake County,146472,42.354164,-88.012291
Lake Forest College,146481,42.249574,-87.827454
Lake Forest Graduate School of Management,146490,42.243432,-87.893204
Lake Land College,146506,39.416969,-88.380835
Lakeview College of Nursing,146533,40.13855,-87.644379
Lewis and Clark Community College,146603,38.951624,-90.194405
Lewis University,146612,41.605432,-88.079032
Lincoln Christian University,146667,40.148924,-89.346721
Lincoln College,146676,40.155442,-89.36153
Lincoln Land Community College,146685,39.721211,-89.611249
Lincoln College of Technology-Melrose Park,146700,41.905577,-87.832162
Loyola University Chicago,146719,42.000765,-87.656872
Lutheran School of Theology at Chicago,146728,41.79563,-87.598978
Trinity College of Nursing & Health Sciences,146755,41.484924,-90.568862
Steven Papageorge Hair Academy,146807,41.939685,-87.657152
Generations College,146816,41.881898,-87.626657
McCormick Theological Seminary,146977,41.79597,-87.598511
McHenry County College,147004,42.259111,-88.368956
McKendree University,147013,38.608154,-89.816822
Meadville Theological School of Lombard College,147031,41.874027,-87.624619
Methodist College,147129,40.7804,-89.682864
Millikin University,147244,39.842612,-88.976298
Monmouth College,147341,40.914824,-90.63731
Moody Bible Institute,147369,41.897822,-87.633459
Moraine Valley Community College,147378,41.694613,-87.836915
Morrison Institute of Technology,147396,41.7971,-89.965963
Morton College,147411,41.824303,-87.762306
National Louis University,147536,41.880093,-87.624699
National University of Health Sciences,147590,41.861697,-88.013171
Cosmetology Concepts Niles,147642,42.027601,-87.815113
North Central College,147660,41.77576,-88.14279
North Park University,147679,41.975268,-87.709948
Northern Baptist Theological Seminary,147697,41.809104,-88.056162
Northern Illinois University,147703,41.933869,-88.766428
Northwestern University,147767,42.050356,-87.679858
Northeastern Illinois University,147776,41.980399,-87.718983
Oakton Community College,147800,42.061893,-87.880644
Oehrlein School of Cosmetology,147819,40.665832,-89.55712
Olivet Nazarene University,147828,41.155237,-87.875165
Parkland College,147916,40.131963,-88.290359
Prairie State College,148007,41.525316,-87.638943
Principia College,148016,38.948835,-90.350285
Professional's Choice Hair Design Academy,148098,41.523122,-88.148846
Quincy University,148131,39.938898,-91.385975
Rend Lake College,148256,38.131481,-88.918283
Richland Community College,148292,39.883887,-88.894125
Rock Valley College,148380,42.306174,-88.993544
Rockford University,148405,42.270639,-89.019536
Roosevelt University,148487,41.876055,-87.624952
Dominican University,148496,41.902678,-87.823003
Rush University,148511,41.874742,-87.668581
Saint Francis Medical Center College of Nursing,148575,40.701241,-89.590322
University of St Francis,148584,41.532225,-88.096057
St. John's College-Department of Nursing,148593,39.807602,-89.64532
Saint Xavier University,148627,41.707199,-87.714749
University of Illinois Springfield,148654,39.729524,-89.616796
Sauk Valley Community College,148672,41.817659,-89.596483
Shawnee Community College,148821,37.270198,-89.03352
St. Augustine College,148876,41.972414,-87.662806
University of Saint Mary of the Lake,148885,42.280702,-88.000262
Southeastern Illinois College,148937,37.75174,-88.436631
National Latino Education Institute,148955,41.822756,-87.675917
Spertus College,148982,41.873881,-87.624785
Spoon River College,148991,40.527991,-90.07233
Saint Anthony College of Nursing,149028,42.310147,-88.991968
Educators of Beauty College of Cosmetology-Sterling,149204,41.788581,-89.692522
Southern Illinois University-Carbondale,149222,37.714193,-89.217273
Southern Illinois University-Edwardsville,149231,38.793949,-89.997779
Taylor Business Institute,149310,41.885452,-87.62671
Telshe Yeshiva-Chicago,149329,41.975536,-87.71755
South Suburban College,149365,41.606427,-87.619123
Tri-County Beauty Academy,149499,39.176137,-89.655742
Trinity Christian College,149505,41.667687,-87.783973
Trinity International University-Illinois,149514,42.197945,-87.880851
Triton College,149532,41.916082,-87.841056
University of Spa & Cosmetology Arts,149550,39.76672,-89.710839
VanderCook College of Music,149639,41.836833,-87.629138
Waubonsee Community College,149727,41.795955,-88.459925
Oak Point University,149763,41.90748,-87.685291
Western Illinois University,149772,40.468086,-90.686899
Wheaton College,149781,41.870176,-88.099643
William Rainey Harper College,149842,42.081829,-88.072811
Anderson University,150066,40.112768,-85.664315
Ball State University,150136,40.203431,-85.409043
Bethel University,150145,41.678399,-86.194686
Butler University,150163,39.8374,-86.172167
Calumet College of Saint Joseph,150172,41.671008,-87.494123
Christian Theological Seminary,150215,39.832673,-86.178551
College of Court Reporting Inc,150251,41.467574,-87.066331
Concordia Theological Seminary,150288,41.139321,-85.10994
Tricoci University of Beauty Culture-Highland,150303,41.555885,-87.467018
DePauw University,150400,39.640904,-86.860363
Don Roberts School of Hair Design,150428,41.485532,-87.447089
Earlham College,150455,39.823431,-84.915037
University of Evansville,150534,37.971549,-87.531644
Franklin College,150604,39.478298,-86.047182
Goshen College,150668,41.563582,-85.827795
Grace College and Theological Seminary,150677,41.22595,-85.814228
Hanover College,150756,38.715642,-85.460051
J Michael Harrold Beauty Academy,150765,39.470359,-87.383391
Holy Cross College,150774,41.698996,-86.253822
PJ's College of Cosmetology-Clarksville,150853,38.3121,-85.768914
Huntington University,150941,40.898152,-85.497317
Ivy Tech Community College,150987,39.803753,-86.158213
Purdue University Fort Wayne,151102,41.117278,-85.108962
Indiana University-Purdue University-Indianapolis,151111,39.772948,-86.172217
University of Indianapolis,151263,39.709571,-86.133969
Indiana Institute of Technology,151290,41.078365,-85.116479
University of Southern Indiana,151306,37.962374,-87.677214
Indiana State University,151324,39.469073,-87.407846
Indiana University-Kokomo,151333,40.460062,-86.132048
Indiana University-South Bend,151342,41.665324,-86.221991
Indiana University-Bloomington,151351,39.16609,-86.526559
Indiana University-Northwest,151360,41.557324,-87.337249
Indiana University-Southeast,151379,38.345191,-85.819985
Indiana University-East,151388,39.868707,-84.881923
International Business College-Indianapolis,151467,39.885628,-86.041648
Taylor Institute of Cosmetology II,151564,41.287712,-86.618158
Tricoci University of Beauty Culture-Lafayette,151607,40.419818,-86.887007
Lincoln College of Technology-Indianapolis,151661,39.884503,-86.246276
Manchester University,151777,41.010549,-85.762643
Marian University,151786,39.813233,-86.202643
Indiana Wesleyan University-Marion,151801,40.517937,-85.667503
Martin University,151810,39.798144,-86.103953
Anabaptist Mennonite Biblical Seminary,151865,41.656013,-85.972165
Mid-America College of Funeral Service,151962,38.31209,-85.744696
West Michigan College of Barbering and Beauty,152044,42.259329,-85.590244
University of Notre Dame,152080,41.703058,-86.238959
Oakland City University,152099,38.340891,-87.35144
PJ's College of Cosmetology-Richmond,152150,39.83227,-84.842601
Ravenscroft Beauty College,152275,41.121802,-85.046078
Rogers Academy of Hair Design,152309,37.970675,-87.572366
Rose-Hulman Institute of Technology,152318,39.483602,-87.326749
University of Saint Francis-Fort Wayne,152336,41.087205,-85.177246
Saint Mary-of-the-Woods College,152381,39.508546,-87.463791
Saint Mary's College,152390,41.707274,-86.256947
Saint Meinrad School of Theology,152451,38.165546,-86.810388
Saint Elizabeth School of Nursing,152497,40.427401,-86.88083
Taylor University,152530,40.456246,-85.497034
Trine University,152567,41.632502,-85.008009
Valparaiso University,152600,41.462239,-87.040172
Vincennes Beauty College,152628,38.679739,-87.53241
Vincennes University,152637,38.687766,-87.519939
Wabash College,152673,40.037588,-86.906
Allen College,152798,42.530084,-92.340148
Briar Cliff University,152992,42.526443,-96.428444
Buena Vista University,153001,42.642255,-95.208529
Capri College-Dubuque,153074,42.497357,-90.665565
Capri College-Cedar Rapids,153083,41.960734,-91.710201
Central College,153108,41.401539,-92.922199
Clarke University,153126,42.509475,-90.690487
Coe College,153144,41.988263,-91.658192
Cornell College,153162,41.924554,-91.423741
Des Moines Area Community College,153214,41.707348,-93.611597
Divine Word College,153241,42.441721,-90.934578
Dordt University,153250,43.082527,-96.166562
Drake University,153269,41.60129,-93.652163
University of Dubuque,153278,42.49726,-90.693428
Ellsworth Community College,153296,42.527524,-93.265853
Emmaus Bible College,153302,42.508307,-90.706011
Eastern Iowa Community College District,153311,41.522179,-90.574459
Faith Baptist Bible College and Theological Seminary,153320,41.737082,-93.624422
Graceland University-Lamoni,153366,40.615966,-93.924893
Grand View University,153375,41.620813,-93.604352
Grinnell College,153384,41.747952,-92.722094
Orion Technical College,153427,41.573888,-90.560088
Hawkeye Community College,153445,42.430003,-92.330633
American Hair Academy,153463,40.962643,-91.524949
Indian Hills Community College,153472,41.045105,-92.394736
Iowa Central Community College,153524,42.490067,-94.20299
Iowa Lakes Community College,153533,43.401376,-94.835661
UnityPoint Health-Des Moines School of Radiologic Technology,153542,41.590094,-93.635129
Iowa School of Beauty-Des Moines,153597,41.624684,-93.711628
Iowa State University,153603,42.026212,-93.648504
Iowa Wesleyan University,153621,40.973791,-91.552459
Iowa Western Community College,153630,41.272168,-95.797975
University of Iowa,153658,41.661935,-91.536425
Kirkwood Community College,153737,41.911268,-91.651172
La James International College-Cedar Falls,153746,42.515026,-92.434496
La James International College-Johnston,153764,41.661015,-93.738577
La James College of Hairstyling and Cosmetology,153773,43.153786,-93.199881
La James International College-Ft Dodge,153782,42.5005,-94.163856
Loras College,153825,42.503908,-90.679023
Luther College,153834,43.312304,-91.802809
Maharishi International University,153861,41.017781,-91.967306
Marshalltown Community College,153922,42.00065,-92.909411
Mercy College of Health Sciences,153977,41.594559,-93.626238
Morningside University,154004,42.473891,-96.359464
Mount Mercy University,154013,42.001931,-91.650991
Ashford University,154022,32.8273,-117.141961
North Iowa Area Community College,154059,43.157169,-93.13126
University of Northern Iowa,154095,42.514923,-92.459703
Northwestern College,154101,42.999007,-96.058772
Northeast Iowa Community College,154110,43.17523,-91.867105
Northwest Iowa Community College,154129,43.184701,-95.880639
Des Moines University-Osteopathic Medical Center,154156,41.583325,-93.661686
Iowa School of Beauty-Ottumwa,154165,41.02334,-92.417948
Palmer College of Chiropractic,154174,41.529021,-90.574607
PCI Academy-Ames,154208,41.99767,-93.613611
Saint Ambrose University,154235,41.54065,-90.579854
St Luke's College,154262,42.520081,-96.404724
La James International College-Davenport,154332,41.572861,-90.5682
Simpson College,154350,41.365503,-93.563471
Southeastern Community College,154378,40.814496,-91.171881
Southwestern Community College,154396,41.073437,-94.380906
Capri College-Davenport,154448,41.575211,-90.538828
Iowa School of Beauty-Sioux City,154457,42.441812,-96.365842
E Q School of Hair Design,154466,41.235617,-95.858073
Upper Iowa University,154493,42.838283,-91.799543
Waldorf University,154518,43.262923,-93.641714
Wartburg College,154527,42.7277,-92.483387
Wartburg Theological Seminary,154536,42.485761,-90.691225
The Salon Professional Academy-Cedar Falls,154545,42.511022,-92.433262
Western Iowa Tech Community College,154572,42.482953,-96.348874
William Penn University,154590,41.310111,-92.647095
Allen County Community College,154642,37.938038,-95.396377
Baker University,154688,38.778712,-95.187346
Barton County Community College,154697,38.403529,-98.731648
Benedictine College,154712,39.572646,-95.111473
Bethany College,154721,38.580598,-97.67367
Bethel College-North Newton,154749,38.075169,-97.343256
Butler Community College,154800,37.806699,-96.882987
Central Christian College of Kansas,154855,38.357978,-97.668597
Cloud County Community College,154907,39.554199,-97.664147
Coffeyville Community College,154925,37.033814,-95.621374
Colby Community College,154934,39.377601,-101.052744
Cowley County Community College,154952,37.061668,-97.043075
Dodge City Community College,154998,37.776891,-100.037481
Donnelly College,155007,39.112256,-94.650677
Emporia State University,155025,38.414784,-96.179021
Flint Hills Technical College,155052,38.41888,-96.224141
Fort Hays State University,155061,38.872156,-99.342503
Barclay College,155070,37.62012,-99.105351
Friends University,155089,37.678459,-97.367048
Fort Scott Community College,155098,37.816206,-94.715334
Garden City Community College,155104,37.970151,-100.848082
Haskell Indian Nations University,155140,38.938834,-95.232879
Hays Academy of Hair Design,155159,38.884873,-99.310623
Hesston College,155177,38.134558,-97.433883
Hutchinson Community College,155195,38.068035,-97.92135
Independence Community College,155201,37.195614,-95.720518
Johnson County Community College,155210,38.924125,-94.727798
Concorde Career College-Kansas City,155283,39.06799,-94.589819
Kansas City Kansas Community College,155292,39.121911,-94.748061
Kansas Christian College,155308,38.994848,-94.666878
University of Kansas,155317,38.958549,-95.247567
Newman University,155335,37.672643,-97.37768
Old Town Barber College-Wichita,155353,37.68586,-97.323179
Kansas State University,155399,39.188648,-96.581077
Kansas Wesleyan University,155414,38.813795,-97.607973
Washburn Institute of Technology,155423,39.04497,-95.751158
Labette Community College,155450,37.339062,-95.255368
Manhattan Area Technical College,155487,39.197774,-96.615672
Manhattan Christian College,155496,39.184806,-96.579383
McPherson College,155511,38.371422,-97.642996
MidAmerica Nazarene University,155520,38.875615,-94.781635
Neosho County Community College,155566,37.670672,-95.464976
North Central Kansas Technical College,155593,39.482419,-98.110826
Northwest Kansas Technical College,155618,39.346424,-101.70022
Ottawa University-Ottawa,155627,38.603173,-95.264187
Ottawa University-Kansas City,155636,38.932055,-94.635461
Pittsburg State University,155681,37.392071,-94.702473
Pratt Community College,155715,37.654451,-98.714538
University of Saint Mary,155812,39.279396,-94.906743
Salina Area Technical College,155830,38.793582,-97.636892
Seward County Community College,155858,37.059807,-100.917695
Sterling College,155937,38.219937,-98.208644
Tabor College,155973,38.348606,-97.200949
Washburn University,156082,39.033778,-95.702222
Wichita State University-Campus of Applied Sciences and Technology,156107,37.75764,-97.224151
Wichita State University,156125,37.718882,-97.292361
Wichita Technical Institute,156134,37.656976,-97.371819
Alice Lloyd College,156189,37.335087,-82.875068
Asbury University,156213,37.862029,-84.662606
Asbury Theological Seminary,156222,37.861561,-84.660127
Ashland Community and Technical College,156231,38.469201,-82.650664
Barrett and Company School of Hair Design,156277,37.866361,-84.580326
Bellarmine University,156286,38.219279,-85.704997
Berea College,156295,37.57202,-84.292893
PJ's College of Cosmetology-Bowling Green,156310,36.979195,-86.469756
Southcentral Kentucky Community and Technical College,156338,36.984827,-86.476717
Brescia University,156356,37.769041,-87.111639
Campbellsville University,156365,37.343342,-85.348943
Bluegrass Community and Technical College,156392,38.024808,-84.503665
Centre College,156408,37.645709,-84.779392
Clear Creek Baptist Bible College,156417,36.725236,-83.727702
Paul Mitchell the School-Lexington,156426,37.980361,-84.548281
Galen College of Nursing-Louisville,156471,38.277005,-85.695972
University of the Cumberlands,156541,36.737048,-84.161646
Eastern Kentucky University,156620,37.740845,-84.300796
Elizabethtown Community and Technical College,156648,37.692858,-85.879927
Frontier Nursing University,156727,38.051018,-84.692791
Georgetown College,156745,38.207615,-84.553767
PJ's College of Cosmetology-Glasgow,156754,37.012713,-85.922275
Hazard Community and Technical College,156790,37.234897,-83.175644
Paul Mitchell the School-Louisville,156842,38.24897,-85.578849
Henderson Community College,156851,37.797687,-87.650091
Hopkinsville Community College,156860,36.882654,-87.488297
Jefferson Community and Technical College,156921,38.246027,-85.753615
Summit Salon Academy-Lexington,156967,38.028451,-84.453521
American National University-Pikeville,157021,37.539398,-82.607154
Kentucky Mountain Bible College,157030,37.603443,-83.438765
Kentucky State University,157058,38.201427,-84.855402
Kentucky Wesleyan College,157076,37.744489,-87.119658
University of Kentucky,157085,38.038911,-84.504747
Kentucky Christian University,157100,38.338805,-82.945561
Lexington Theological Seminary,157207,37.996332,-84.526079
Lindsey Wilson College,157216,37.101502,-85.299997
University of Louisville,157289,38.216862,-85.760412
Louisville Presbyterian Theological Seminary,157298,38.237056,-85.686411
Madisonville Community College,157304,37.362661,-87.512137
Maysville Community and Technical College,157331,38.626607,-83.806786
Midway University,157377,38.146126,-84.678142
Morehead State University,157386,38.186768,-83.434021
Murray State University,157401,36.612419,-88.323629
Gateway Community and Technical College,157438,38.960638,-84.633478
Northern Kentucky University,157447,39.029714,-84.463483
West Kentucky Community and Technical College,157483,37.054081,-88.658762
University of Pikeville,157535,37.479232,-82.521063
Big Sandy Community and Technical College,157553,37.688248,-82.778847
Empire Beauty School-Chenoweth,157614,38.255764,-85.65752
Empire Beauty School-Elizabethtown,157650,37.697453,-85.878557
Empire Beauty School-Dixie,157669,38.167059,-85.830866
Empire Beauty School-Florence,157678,39.009553,-84.628998
Somerset Community College,157711,37.059599,-84.617546
Southeast Kentucky Community & Technical College,157739,36.966051,-82.997661
The Southern Baptist Theological Seminary,157748,38.248216,-85.687649
Spalding University,157757,38.242407,-85.757725
Sullivan University,157793,38.212824,-85.670489
Thomas More University,157809,39.022963,-84.568923
Transylvania University,157818,38.052983,-84.493202
Union College,157863,36.870875,-83.888477
Western Kentucky University,157951,36.985035,-86.456828
Central Louisiana Technical Community College,158088,31.310461,-92.446693
Ayers Career College,158246,32.418291,-93.798229
Baton Rouge General Medical Center School of Nursing & School of Radiologic Technology,158325,30.449088,-91.153084
Baton Rouge School of Computers,158343,30.422155,-91.080837
Bossier Parish Community College,158431,32.539551,-93.646881
Centenary College of Louisiana,158477,32.483335,-93.730834
Cloyd's Beauty School 1 Inc,158538,32.499976,-92.126506
Crescent City Bartending School,158617,29.966842,-90.086679
Delgado Community College,158662,29.985149,-90.103962
Avery James College,158778,30.202601,-93.219712
Denham Springs Beauty School,158787,30.484636,-90.944774
Dillard University,158802,29.996587,-90.06464
Nunez Community College,158884,29.95419,-89.95888
Grambling State University,159009,32.523797,-92.713245
Guy's Shreveport Academy of Cosmetology Inc,159027,32.485759,-93.706628
ITI Technical College,159197,30.369764,-91.030485
John Jay Beauty College,159328,30.007684,-90.230259
Louisiana State University Health Sciences Center-New Orleans,159373,29.957272,-90.083145
Louisiana State University-Alexandria,159382,31.178616,-92.414409
Louisiana State University and Agricultural & Mechanical College,159391,30.414986,-91.178921
Louisiana State University-Eunice,159407,30.473292,-92.434523
Louisiana State University-Shreveport,159416,32.428465,-93.70561
Aveda Arts & Sciences Institute-Baton Rouge,159513,30.426526,-91.054308
Aveda Arts & Sciences Institute-Lafayette,159522,30.206168,-92.042092
Louisiana Academy of Beauty,159531,30.495111,-92.408948
Louisiana Christian University,159568,31.324528,-92.425973
Opelousas School of Cosmetology,159601,30.53165,-92.077854
Louisiana Tech University,159647,32.528297,-92.649963
Loyola University New Orleans,159656,29.936141,-90.120417
McNeese State University,159717,30.178187,-93.217222
University of New Orleans,159939,30.027704,-90.067142
New Orleans Baptist Theological Seminary,159948,30.004336,-90.043439
Nicholls State University,159966,29.794486,-90.801571
University of Louisiana at Monroe,159993,32.527748,-92.07374
Northwest Louisiana Technical Community College,160010,32.586037,-93.26302
Northwestern State University of Louisiana,160038,31.750666,-93.097797
University of Holy Cross,160065,29.912003,-89.99445
Franciscan Missionaries of Our Lady University,160074,30.401379,-91.110587
Pat Goins Benton Road Beauty School,160117,32.516422,-93.719361
Celebrity Stylist Beauty School,160126,32.52121,-92.085347
Pineville Beauty School,160199,31.325717,-92.430903
Aveda Arts & Sciences Institute-Covington,160320,30.494049,-90.104008
Saint Joseph Seminary College,160409,30.526778,-90.113621
LaSalle Tech,160472,29.592656,-90.696772
Fletcher Technical Community College,160481,29.690884,-90.811707
Remington College-Lafayette Campus,160524,30.16862,-92.023767
SOWELA Technical Community College,160579,30.217331,-93.16252
Stevensons Academy of Hair Design,160597,29.948438,-90.052219
Southeastern Louisiana University,160612,30.514652,-90.468676
Southern University and A & M College,160621,30.524558,-91.190105
Southern University at New Orleans,160630,30.026162,-90.044912
Southern University at Shreveport,160649,32.545632,-93.834559
University of Louisiana at Lafayette,160658,30.212191,-92.020165
Northshore Technical Community College,160667,30.379147,-89.899196
Tulane University of Louisiana,160755,29.940069,-90.122144
Xavier University of Louisiana,160904,29.964162,-90.107307
College of the Atlantic,160959,44.395258,-68.221517
Bates College,160977,44.105299,-70.203333
Beal University,160995,44.786465,-68.785428
Bowdoin College,161004,43.907134,-69.963942
Maine College of Health Professions,161022,44.100458,-70.21732
Central Maine Community College,161077,44.134346,-70.235498
Colby College,161086,44.564211,-69.66337
Eastern Maine Community College,161138,44.826048,-68.74445
Kennebec Valley Community College,161192,44.594149,-69.61157
The Landing School,161208,43.380492,-70.503619
University of Maine at Augusta,161217,44.337746,-69.796396
University of Maine at Farmington,161226,44.666911,-70.147121
University of Maine at Fort Kent,161235,47.250389,-68.589319
University of Maine,161253,44.899257,-68.669332
Maine Maritime Academy,161299,44.389654,-68.804347
University of Maine at Presque Isle,161341,46.672285,-68.016343
University of New England,161457,43.458591,-70.38535
Northern Maine Community College,161484,46.694668,-68.034796
Empire Beauty School-Maine,161493,43.667885,-70.258154
Maine College of Art & Design,161509,43.655743,-70.261015
Saint Joseph's College of Maine,161518,43.826314,-70.483373
Spa Tech Institute-Westbrook,161527,43.67659,-70.335331
Southern Maine Community College,161545,43.646649,-70.229182
University of Southern Maine,161554,43.662863,-70.274247
Thomas College,161563,44.524909,-69.664734
Unity College,161572,44.603165,-69.332276
Washington County Community College,161581,45.165537,-67.243306
Allegany College of Maryland,161688,39.652152,-78.730398
Anne Arundel Community College,161767,39.049813,-76.512223
Award Beauty School,161800,39.640443,-77.720283
Baltimore Studio of Hair Design,161855,39.293371,-76.620008
Baltimore City Community College,161864,39.319978,-76.662878
University of Baltimore,161873,39.305834,-76.616591
Bowie State University,162007,39.018185,-76.759721
Capitol Technology University,162061,39.046673,-76.850231
Cecil College,162104,39.642225,-75.955949
College of Southern Maryland,162122,38.55895,-77.009245
Chesapeake College,162168,38.952193,-76.083668
Washington Adventist University,162210,38.986349,-77.000608
Coppin State University,162283,39.311258,-76.658687
Del-Mar-Va Beauty Academy,162335,38.339006,-75.601701
North American Trade Schools,162371,39.309556,-76.749455
Frederick Community College,162557,39.452241,-77.417849
Frostburg State University,162584,39.650918,-78.934293
Garrett College,162609,39.560493,-79.342923
Goucher College,162654,39.410175,-76.594843
Hagerstown Community College,162690,39.631009,-77.667379
Harford Community College,162706,39.56131,-76.282845
Hood College,162760,39.420631,-77.419049
Howard Community College,162779,39.213636,-76.877964
Aveda Institute-Maryland,162830,39.531933,-76.349927
Johns Hopkins University,162928,39.328977,-76.621595
Lincoln College of Technology-Columbia,163028,39.174673,-76.836463
Loyola University Maryland,163046,39.346358,-76.621872
University of Maryland Global Campus,163204,38.912706,-76.847584
University of Maryland Baltimore,163259,39.286864,-76.623983
University of Maryland-Baltimore County,163268,39.256686,-76.711607
University of Maryland-College Park,163286,38.988178,-76.944721
Maryland Institute College of Art,163295,39.308792,-76.621033
University of Maryland Eastern Shore,163338,38.207386,-75.686852
Fortis Institute-Towson,163347,39.403271,-76.604593
Montgomery Beauty School,163408,38.999622,-77.001966
Montgomery College,163426,39.098656,-77.15929
Morgan State University,163453,39.344161,-76.585565
Mount St. Mary's University,163462,39.681705,-77.351887
Ner Israel Rabbinical College,163532,39.388021,-76.753526
Hair Academy,163541,38.956205,-76.869467
Notre Dame of Maryland University,163578,39.350612,-76.619739
Prince George's Community College,163657,38.888689,-76.824623
Maryland Beauty Academy of Essex,163815,39.29844,-76.509213
Salisbury University,163851,38.34648,-75.604815
St. Mary's College of Maryland,163912,38.190904,-76.429097
St. John's College,163976,38.981598,-76.491359
Towson University,164076,39.393622,-76.611164
Maryland University of Integrative Health,164085,39.165872,-76.888025
United States Naval Academy,164155,38.980507,-76.481692
Stevenson University,164173,39.421988,-76.702092
Washington College,164216,39.217329,-76.06878
McDaniel College,164270,39.584231,-77.001992
Wor-Wic Community College,164313,38.373723,-75.499659
Hult International Business School,164368,42.369968,-71.070645
American International College,164447,42.112346,-72.558338
Amherst College,164465,42.372459,-72.518493
Anna Maria College,164492,42.330542,-71.91896
Assabet Valley Regional Technical School,164535,42.36775,-71.567281
Assumption University,164562,42.294226,-71.828991
Babson College,164580,42.297017,-71.264057
Bancroft School of Massage Therapy,164599,42.268973,-71.778113
Boston Baptist College,164614,42.254037,-71.1103
Bay Path University,164632,42.055088,-72.583382
Bay State College,164641,42.350966,-71.071615
Bentley University,164739,42.385995,-71.222839
Berklee College of Music,164748,42.346646,-71.089405
Berkshire Community College,164775,42.45975,-73.314704
Empire Beauty School-Boston,164845,42.354683,-71.062722
Boston Architectural College,164872,42.348467,-71.085786
Boston Graduate School of Psychoanalysis Inc,164915,42.33912,-71.133151
Boston College,164924,42.336213,-71.169242
Boston University,164988,42.351118,-71.107942
Brandeis University,165015,42.365727,-71.260155
Bridgewater State University,165024,41.98749,-70.974553
Bristol Community College,165033,41.721994,-71.119133
Signature Healthcare Brockton Hospital School of Nursing,165060,42.088032,-70.992764
Bunker Hill Community College,165112,42.374806,-71.069263
Cambridge College,165167,42.381091,-71.072646
Cape Cod Community College,165194,41.691911,-70.337334
Catherine Hinds Institute of Esthetics,165255,42.493212,-71.13715
Laboure College of Healthcare,165264,42.260866,-71.058279
Clark University,165334,42.249987,-71.823356
Conway School of Landscape Design,165495,42.313857,-72.64875
Curry College,165529,42.238061,-71.116539
Lincoln Technical Institute-Somerville,165556,42.390826,-71.082082
Dean College,165574,42.085634,-71.397813
Diman Regional Technical Institute,165608,41.699857,-71.124742
National Aviation Academy of New England,165635,42.462164,-71.387244
Eastern Nazarene College,165644,42.271228,-71.011079
Emerson College,165662,42.352202,-71.065384
Endicott College,165699,42.553296,-70.840847
Rob Roy Academy-Fall River,165750,41.698905,-71.157664
Fisher College,165802,42.355253,-71.074125
Fitchburg State University,165820,42.588298,-71.789666
Framingham State University,165866,42.297116,-71.437565
Benjamin Franklin Cummings Institute of Technology,165884,42.346023,-71.070231
Gordon College,165936,42.590567,-70.82151
Gordon-Conwell Theological Seminary,165945,42.613475,-70.846387
Greenfield Community College,165981,42.599512,-72.630977
Hampshire College,166018,42.325852,-72.531469
Harvard University,166027,42.374471,-71.118313
Hebrew College,166045,42.325677,-71.189226
Hellenic College-Holy Cross Greek Orthodox School of Theology,166054,42.317018,-71.129418
College of the Holy Cross,166124,42.23752,-71.808214
Holyoke Community College,166133,42.194781,-72.651252
Lasell University,166391,42.342148,-71.24347
Lawrence Memorial Hospital School of Nursing,166407,42.42581,-71.110958
Lesley University,166452,42.38012,-71.117303
Longy School of Music of Bard College,166489,42.378657,-71.123479
Lowell Academy Hairstyling Institute,166498,42.643609,-71.308309
University of Massachusetts-Lowell,166513,42.652864,-71.326809
University of Massachusetts-Amherst,166629,42.385999,-72.526728
University of Massachusetts-Boston,166638,42.312881,-71.036865
Massachusetts Bay Community College,166647,42.312292,-71.263821
MCPHS University,166656,42.336825,-71.101244
Massachusetts College of Art and Design,166674,42.336862,-71.099275
Massachusetts Institute of Technology,166683,42.359243,-71.093226
Massachusetts Maritime Academy,166692,41.739072,-70.624084
University of Massachusetts Chan Medical School,166708,42.278002,-71.762144
William James College,166717,42.294995,-71.203256
Massachusetts School of Barbering,166805,42.247457,-71.001891
Massasoit Community College,166823,42.07507,-70.989799
Merrimack College,166850,42.668344,-71.124216
MGH Institute of Health Professions,166869,42.375018,-71.054002
Montserrat College of Art,166911,42.550212,-70.876131
Mount Holyoke College,166939,42.256838,-72.575511
Mount Wachusett Community College,166957,42.593142,-71.984148
Rob Roy Academy-New Bedford,167039,41.671921,-70.925187
The New England Conservatory of Music,167057,42.340946,-71.08629
New England College of Optometry,167093,42.351853,-71.086829
New England Law-Boston,167215,42.350833,-71.0665
Nichols College,167260,42.044033,-71.930283
Massachusetts College of Liberal Arts,167288,42.691361,-73.102817
North Bennet Street School,167297,42.36279,-71.05452
North Shore Community College,167312,42.590103,-70.968044
Northeastern University,167358,42.339992,-71.088782
Northern Essex Community College,167376,42.796634,-71.04904
College of Our Lady of the Elms,167394,42.141781,-72.60154
Pine Manor College,167455,42.320827,-71.156464
Pope St John XXIII National Seminary,167464,42.339408,-71.311059
Quincy College,167525,42.252416,-71.003476
Quinsigamond Community College,167534,42.31379,-71.79503
Regis College,167598,42.351291,-71.310561
Roxbury Community College,167631,42.329249,-71.09549
Saint John's Seminary,167677,42.344146,-71.161998
Salem State University,167729,42.503575,-70.890234
Simmons University,167783,42.3393,-71.099967
Bard College at Simon's Rock,167792,42.208803,-73.379201
Smith College,167835,42.318111,-72.638097
Southeastern Technical Institute,167871,42.010312,-71.081227
Springfield College,167899,42.101576,-72.556751
Springfield Technical Community College,167905,42.108827,-72.578514
University of Massachusetts-Dartmouth,167987,41.62869,-71.004552
Stonehill College,167996,42.05905,-71.080632
Suffolk University,168005,42.357945,-71.060917
Rob Roy Academy-Taunton,168032,41.901945,-71.091966
Tufts University,168148,42.40855,-71.118293
Wellesley College,168218,42.291554,-71.306605
Wentworth Institute of Technology,168227,42.336632,-71.094983
Western New England University,168254,42.115017,-72.520466
Westfield State University,168263,42.132698,-72.796503
Wheaton College (Massachusetts),168281,41.966637,-71.183979
Williams College,168342,42.712725,-73.203132
Worcester Polytechnic Institute,168421,42.274853,-71.808339
Worcester State University,168430,42.267526,-71.844018
Adrian College,168528,41.898591,-84.061481
Albion College,168546,42.245049,-84.745639
Hillsdale Beauty College,168555,41.918718,-84.631429
Northwestern Technological Institute,168573,42.469188,-83.238529
Alma College,168591,43.38004,-84.672053
Alpena Community College,168607,45.081647,-83.445069
Andrews University,168740,41.963859,-86.355815
Aquinas College,168786,42.96019,-85.628785
Baker College,168847,42.984804,-84.172404
Bay de Noc Community College,168883,45.772586,-87.085228
Bayshire Academy of Beauty Craft Inc,168892,43.599758,-83.88895
Calvin University,169080,42.929916,-85.587548
Calvin Theological Seminary,169099,42.927951,-85.586439
Carnegie Institute,169187,42.53889,-83.118801
Michigan School of Psychology,169220,42.491427,-83.359575
Central Michigan University,169248,43.591203,-84.77525
Mott Community College,169275,43.019941,-83.67243
Empire Beauty School-Michigan,169284,43.028642,-85.691067
Cleary University,169327,42.586638,-83.879987
Concordia University Ann Arbor,169363,42.273157,-83.68268
Cranbrook Academy of Art,169424,42.568904,-83.250681
College for Creative Studies,169442,42.361839,-83.062352
Davenport University,169479,42.850013,-85.533519
David Pressley School of Cosmetology,169503,42.479729,-83.146008
Delta College,169521,43.559491,-83.985943
Detroit Business Institute-Downriver,169576,42.168682,-83.191212
MIAT College of Technology,169655,42.286324,-83.445507
University of Detroit Mercy,169716,42.414222,-83.139158
Dorsey College,169761,42.525318,-83.107631
Eastern Michigan University,169798,42.251675,-83.627443
Creative Hair School of Cosmetology,169813,42.980416,-83.757927
Ferris State University,169910,43.687724,-85.481925
Glen Oaks Community College,169974,41.892504,-85.496929
Kettering University,169983,43.012468,-83.71282
Gogebic Community College,169992,46.471893,-90.165592
Grace Christian University,170000,42.919541,-85.692077
Cornerstone University,170037,42.979966,-85.595328
Grand Rapids Community College,170055,42.967076,-85.665625
Grand Valley State University,170082,42.963001,-85.889826
Great Lakes Christian College,170091,42.754249,-84.638714
Henry Ford College,170240,42.324639,-83.236056
Hillsdale College,170286,41.933682,-84.633195
Hope College,170301,42.787298,-86.102089
Jackson College,170444,42.16483,-84.403942
Kalamazoo College,170532,42.290789,-85.601857
Kalamazoo Valley Community College,170541,42.225948,-85.682144
Kellogg Community College,170550,42.335638,-85.177329
Kirtland Community College,170587,44.601785,-84.706254
Michigan College of Beauty-Monroe,170611,41.907014,-83.407005
Lake Michigan College,170620,42.097276,-86.393445
Lake Superior State University,170639,46.492849,-84.365573
Lansing Community College,170657,42.738435,-84.55157
Lawrence Technological University,170675,42.474072,-83.25003
M J Murphy Beauty College of Mount Pleasant,170736,43.60429,-84.777927
Macomb Community College,170790,42.50599,-82.972377
Madonna University,170806,42.384323,-83.404722
Rochester University,170967,42.667521,-83.144959
University of Michigan-Ann Arbor,170976,42.275921,-83.742769
The Michigan Barber School,171012,42.365023,-83.128883
Michigan State University,171100,42.73212,-84.476111
Michigan Technological University,171128,47.11866,-88.548092
University of Michigan-Dearborn,171137,42.317287,-83.231417
University of Michigan-Flint,171146,43.01875,-83.690276
Mid Michigan College,171155,43.969586,-84.763715
Monroe County Community College,171225,41.91617,-83.470274
Montcalm Community College,171234,43.253191,-85.100181
Muskegon Community College,171304,43.250329,-86.196384
North Central Michigan College,171395,45.361727,-84.954183
Northern Michigan University,171456,46.559751,-87.406568
Northwestern Michigan College,171483,44.765436,-85.585517
Northwood University,171492,43.628717,-84.27682
Oakland Community College,171535,42.595441,-83.244787
Oakland University,171571,42.674573,-83.216418
Olivet College,171599,42.442891,-84.923891
Port Huron Cosmetology College,171775,42.700677,-83.398624
Kuyper College,171881,43.02195,-85.592657
Ross Medical Education Center-Lansing,171988,42.741855,-84.605807
Ross Medical Education Center-Warren,171997,42.508189,-83.107692
Ross Medical Education Center-Flint,172015,42.986442,-83.751751
Sacred Heart Major Seminary,172033,42.375248,-83.111682
Saginaw Valley State University,172051,43.51176,-83.964273
Schoolcraft Community College District,172200,42.419279,-83.430958
Siena Heights University,172264,41.905624,-84.018841
St Clair County Community College,172291,42.979494,-82.428717
Southwestern Michigan College,172307,41.965095,-86.082715
Spring Arbor University,172334,42.206568,-84.556074
Michigan Career and Technical Institute,172422,42.504599,-85.517049
Finlandia University,172440,47.127868,-88.588756
Western Michigan University-Thomas M. Cooley Law School,172477,42.731,-84.554429
Twin City Beauty College,172495,42.071099,-86.47655
Walsh College,172608,42.573888,-83.147197
Washtenaw Community College,172617,42.26361,-83.66559
Wayne County Community College District,172635,42.327299,-83.054497
Wayne State University,172644,42.358994,-83.068998
West Shore Community College,172671,44.008512,-86.336122
Paul Mitchell the School-Grand Rapids,172680,42.910707,-85.596605
Western Michigan University,172699,42.282194,-85.613759
Western Theological Seminary,172705,42.786246,-86.10324
Academy College,172866,44.855722,-93.299809
Alexandria Technical & Community College,172918,45.873107,-95.372369
Anoka Technical College,172954,45.216709,-93.416087
Anoka-Ramsey Community College,172963,45.172978,-93.351697
Augsburg University,173045,44.966307,-93.240436
Riverland Community College,173063,43.676271,-92.995626
Northwest Technical College,173115,47.452652,-94.853974
Bemidji State University,173124,47.482341,-94.874119
Bethany Lutheran College,173142,44.166649,-93.990805
Central Lakes College-Brainerd,173203,46.345863,-94.214266
Carleton College,173258,44.462318,-93.154666
Concordia College at Moorhead,173300,46.862482,-96.76749
Concordia University-Saint Paul,173328,44.949759,-93.154861
Dakota County Technical College,173416,44.737255,-93.07805
Martin Luther College,173452,44.30526,-94.472326
Lake Superior College,173461,46.78455,-92.145151
Cosmetology Careers Unlimited College of Hair Skin and Nails,173470,46.785596,-92.100581
Minnesota State Community and Technical College,173559,46.289194,-96.097321
Minnesota West Community and Technical College,173638,44.80755,-95.56172
Gustavus Adolphus College,173647,44.323626,-93.972196
Hamline University,173665,44.966246,-93.164479
Hazelden Betty Ford Graduate School of Addiction Studies,173683,45.375319,-92.805285
Hennepin Technical College,173708,45.096534,-93.397759
Minnesota North College,173735,47.422361,-92.921698
Aveda Arts & Sciences Institute Minneapolis,173744,44.987863,-93.253713
Inver Hills Community College,173799,44.828599,-93.055255
Minnesota North College - Itasca,173805,47.241919,-93.49555
Luther Seminary,173896,44.984629,-93.196422
Macalester College,173902,44.938565,-93.168053
South Central College,173911,44.174319,-94.047428
Minnesota State University-Mankato,173920,44.146712,-93.99945
Mayo Clinic College of Medicine and Science,173957,44.02215,-92.466428
Minnesota North College - Mesabi Range Virginia,173993,47.524561,-92.549092
Metropolitan State University,174020,44.957256,-93.074361
University of Minnesota-Twin Cities,174066,44.972851,-93.235464
University of Minnesota-Crookston,174075,47.802536,-96.606188
Minneapolis College of Art and Design,174127,44.956988,-93.274705
Minneapolis Community and Technical College,174136,44.972679,-93.284507
Herzing University-Minneapolis,174154,44.975225,-93.404863
Minnesota School of Cosmetology-Woodbury Campus,174190,44.924692,-92.973998
University of Minnesota-Duluth,174233,46.817126,-92.084385
University of Minnesota-Morris,174251,45.589775,-95.899729
Model College of Hair Design,174321,45.55773,-94.159447
Minnesota State University Moorhead,174358,46.867153,-96.759532
North Hennepin Community College,174376,45.106937,-93.374536
Normandale Community College,174428,44.829706,-93.331673
North Central University,174437,44.968625,-93.261511
Northland Community and Technical College,174473,48.124969,-96.162366
University of Northwestern-St Paul,174491,45.033703,-93.167822
Northwestern Health Sciences University,174507,44.850963,-93.311222
Oak Hills Christian College,174525,47.425836,-94.901503
Pine Technical & Community College,174570,45.818667,-92.968283
Minnesota North College - Rainy River,174604,48.590001,-93.431603
Rochester Community and Technical College,174738,44.014488,-92.42321
College of Saint Benedict,174747,45.561792,-94.319888
St Cloud Technical and Community College,174756,45.579065,-94.175841
Saint Cloud State University,174783,45.553227,-94.152657
Saint Johns University,174792,45.580075,-94.393621
Saint Mary's University of Minnesota,174817,44.044736,-91.695449
St Olaf College,174844,44.461529,-93.182039
Crown College,174862,44.885393,-93.743019
The College of Saint Scholastica,174899,46.816082,-92.106134
University of St Thomas,174914,44.943439,-93.188986
Empire Beauty School-Bloomington,174978,44.82746,-93.287367
St Catherine University,175005,44.924926,-93.183761
Rasmussen University-Minnesota,175014,45.548117,-94.206254
Saint Paul College,175041,44.949186,-93.109646
Southwest Minnesota State University,175078,44.45373,-95.759548
Summit Academy Opportunities Industrialization Center,175120,44.983569,-93.292776
United Theological Seminary of the Twin Cities,175139,44.962913,-93.203624
Minnesota North College - Vermilion,175157,47.905184,-91.837777
Dunwoody College of Technology,175227,44.97281,-93.290608
Ridgewater College,175236,45.138313,-95.07305
Minnesota State College Southeast,175263,44.024554,-91.618318
Winona State University,175272,44.046159,-91.643723
Mitchell Hamline School of Law,175281,44.94202,-93.138224
Century College,175315,45.041823,-92.982105
Alcorn State University,175342,31.877216,-91.142854
Belhaven University,175421,32.318415,-90.169228
Blue Mountain Christian University,175430,34.67209,-89.02924
Chris Beauty College,175494,30.382294,-89.077391
Coahoma Community College,175519,34.254417,-90.568469
Copiah-Lincoln Community College,175573,31.69272,-90.400234
Delta State University,175616,33.744745,-90.735365
East Central Community College,175643,32.441164,-89.113706
East Mississippi Community College,175652,32.830246,-88.483516
Fosters Cosmetology College,175698,34.755677,-88.942133
Academy of Hair Design-Grenada,175722,33.775198,-89.825313
Hinds Community College,175786,32.256109,-90.416118
Holmes Community College,175810,32.969985,-89.915803
Itawamba Community College,175829,34.276519,-88.412073
Jackson State University,175856,32.296105,-90.207405
Jones County Junior College,175883,31.596936,-89.200895
Meridian Community College,175935,32.367355,-88.732823
Millsaps College,175980,32.322746,-90.179957
Mississippi Delta Community College,176008,33.444906,-90.502053
University of Mississippi,176017,34.365529,-89.537434
Mississippi University for Women,176035,33.493305,-88.418601
Mississippi Valley State University,176044,33.514142,-90.341274
Mississippi College,176053,32.335515,-90.329821
Hatfield's Mississippi College of Beauty Culture,176062,31.693316,-89.135405
Mississippi Gulf Coast Community College,176071,30.780784,-89.142952
Mississippi State University,176080,33.454852,-88.790139
Northeast Mississippi Community College,176169,34.668339,-88.562609
Northwest Mississippi Community College,176178,34.625532,-89.969525
Pearl River Community College,176239,30.844322,-89.543052
Rust College,176318,34.776862,-89.446999
Southeastern Baptist College,176336,31.748512,-89.149373
Southwest Mississippi Community College,176354,31.295121,-90.443295
University of Southern Mississippi,176372,31.32661,-89.331236
Tougaloo College,176406,32.403014,-90.16076
Vaughn Beauty College,176433,33.82442,-88.541839
Wesley Biblical Seminary,176451,32.400142,-90.111379
William Carey University,176479,31.305264,-89.291815
Aquinas Institute of Theology,176600,38.634329,-90.237795
Avila University,176628,38.91339,-94.591758
Baptist Bible College,176664,37.239696,-93.284286
House of Heavilin Beauty College-Blue Springs,176716,38.997932,-94.272412
Cox College,176770,37.225116,-93.290233
Calvary University,176789,38.839578,-94.547927
Cape Girardeau Career and Technology Center,176798,37.274001,-89.565366
Central Christian College of the Bible,176910,39.395963,-92.427259
Central Methodist University-College of Liberal Arts and Sciences,176947,39.150497,-92.685253
University of Central Missouri,176965,38.759111,-93.737428
Grand River Technical School,176983,39.798864,-93.559669
Cleveland University-Kansas City,177038,38.932019,-94.679076
Conception Seminary College,177083,40.24044,-94.682831
Concordia Seminary,177092,38.637181,-90.311324
Cottey College,177117,37.836127,-94.371311
Covenant Theological Seminary,177126,38.643066,-90.451323
Crowder College,177135,36.814906,-94.368315
Culver-Stockton College,177144,40.128993,-91.529374
Drury University,177214,37.219681,-93.286192
East Central College,177250,38.431845,-90.97809
Eden Theological Seminary,177278,38.592307,-90.345605
Pinnacle Career Institute,177302,38.938335,-94.529762
Evangel University,177339,37.220956,-93.262614
Fontbonne University,177418,38.642697,-90.315712
Four Rivers Career Center,177436,38.547707,-91.020914
Ozarks Technical Community College,177472,37.216479,-93.279985
Hannibal-LaGrange University,177542,39.729015,-91.39094
Harris-Stowe State University,177551,38.631744,-90.224288
House of Heavilin Beauty College-Kansas City,177588,39.022905,-94.574262
Summit Salon Academy Kansas City,177603,39.079093,-94.426462
Jefferson College,177676,38.259889,-90.558954
Paul Mitchell the School-Missouri Columbia,177685,38.967204,-92.375761
Barnes-Jewish College Goldfarb School of Nursing,177719,38.637165,-90.258772
Kansas City Art Institute,177746,39.046353,-94.583594
Kenrick Glennon Seminary,177816,38.584608,-90.324024
A T Still University of Health Sciences,177834,40.193648,-92.589183
Lake Career and Technical Center,177870,38.005502,-92.732943
Lex La-Ray Technical Center,177931,39.173683,-93.865563
Lindenwood University,177968,38.785425,-90.501286
State Technical College of Missouri,177977,38.467699,-91.814259
Logan University,177986,38.63133,-90.542333
Metropolitan Community College-Kansas City,177995,39.068668,-94.58966
Lutheran School of Nursing,178004,38.590249,-90.226539
Maryville University of Saint Louis,178059,38.644774,-90.505998
Missouri College of Cosmetology and Esthetics,178077,38.571057,-92.198801
Midwest Institute,178183,38.544447,-90.436174
Midwestern Baptist Theological Seminary,178208,39.185691,-94.573185
Mineral Area College,178217,37.845199,-90.481847
Missouri Baptist University,178244,38.641526,-90.462586
Missouri Southern State University,178341,37.095155,-94.461689
Missouri Valley College,178369,39.108522,-93.190654
Missouri Western State University,178387,39.7575,-94.785643
University of Missouri-Columbia,178396,38.94531,-92.328843
University of Missouri-Kansas City,178402,39.034179,-94.582141
Missouri University of Science and Technology,178411,37.953426,-91.775583
University of Missouri-St Louis,178420,38.710312,-90.311091
Moberly Area Community College,178448,39.418607,-92.455064
Nazarene Theological Seminary,178518,39.009265,-94.565781
Neosho Beauty College,178527,36.870562,-94.368636
